~Version
 VERS              .         3.0                           : CWLS LOG ASCII STANDARD - VERSION 3.0
 WRAP              .         NO                            : ONE LINE PER DEPTH STEP
 DLM               .         SPACE                         : DELIMITING CHARACTER(SPACE TAB OR COMMA)
~Well Information
#_______________________________________________________________________________
#
#PARAMETER_NAME    .UNIT     VALUE                         : DESCRIPTION
#_______________________________________________________________________________
STRT               .M        2850                          : First reference value
STOP               .M        2930                          : Last reference value
STEP               .M        0.2                           : Step increment
NULL               .         -9999                         : Missing value
COMP               .                                       : Company
WELL               .         59P                           : Well name
FLD                .         0317                          : Field
LOC                .         76.931794, 0.464915           : Location
SRVC               .                                       : Service Company
CTRY               .                                       : Country
DATE               .         2002-09-26                    : Service Date
X                  .m        536919.31                     : X or East-West coordinate
Y                  .m        6438948.67                    : Y or North South coordinate
GDAT               .                                       : Geodetic Datum
HZCS               .                                       : Horizontal Co-ordinate System
EREF               .m        120.14                        : 120.14
PROV               .         1                             : Province
UWI                .         03170005900                   : Unique well id
~Parameter Information Block
#_______________________________________________________________________________
#
#PARAMETER_NAME    .UNIT     VALUE                         : DESCRIPTION
#_______________________________________________________________________________
SET                .         59P                           : 
TLFamily_DS        .         Caliper                       : 
TLFamily_DT        .         Compressional Slowness        : 
TLFamily_GR        .         Gamma Ray                     : 
TLFamily_GZ1       .         Extra Shallow Resistivity     : 
TLFamily_GZ2       .         Shallow Resistivity           : 
TLFamily_GZ3       .         Medium Resistivity            : 
TLFamily_GZ3R      .         Medium Resistivity            : 
TLFamily_GZ4       .         Deep Resistivity              : 
TLFamily_ILD       .         Conductivity                  : 
TLFamily_LLD       .         Lateral Log Resistivity       : 
TLFamily_MD        .         Measured Depth                : 
TLFamily_MGZ       .         Micro Gradient Resistivity    : 
TLFamily_MPZ       .         Micro Potential Resistivity   : 
TLFamily_NKTD      .         Neutron Far                   : 
TLFamily_NKTS      .         Neutron Near                  : 
TLFamily_PZ        .         Potential Resistivity         : 
TLFamily_SP        .         Spontaneous Potential         : 
TLFamily_W         .         Neutron Porosity              : 
~Curve Information
#_______________________________________________________________________________
#
#LOGNAME           .UNIT     LOG_ID                        : DESCRIPTION
#_______________________________________________________________________________
MD                 .M                                      :  {F}
DS                 .m                                      :  {F}
DT                 .ms/m                                   :  {F}
GR                 .gapi                                   :  {F}
GZ1                .ohmm                                   :  {F}
GZ2                .ohmm                                   :  {F}
GZ3                .ohmm                                   :  {F}
GZ3R               .ohmm                                   :  {F}
GZ4                .ohmm                                   :  {F}
ILD                .msim/m                                 :  {F}
LLD                .ohmm                                   :  {F}
MGZ                .ohmm                                   :  {F}
MPZ                .ohmm                                   :  {F}
NKTD               .ue                                     :  {F}
NKTS               .ue                                     :  {F}
PZ                 .ohmm                                   :  {F}
SP                 .mv                                     :  {F}
W                  .%                                      :  {F}
~Ascii
# ...
2899.2     0.2128     259.7996   4.5175     22.3871    32.9494    17.9823    12.737     13.4754    163.952    14.9698    4.543      7.233      5.252      2.4126     25.7936    470.998    27.6182   
2899.4001  0.2135996  255.1372   4.4108     22.98503   33.35793   17.5894    11.64814   12.78455   167.1729   14.30557   5.353      7.877      5.163      2.3422     25.19473   472.4995   27.235    
2899.6001  0.2128     252.6189   4.6243     24.27839   36.11905   16.9938    11.53691   12.28979   173.0227   13.84471   5.037      7.953      4.64       2.4515     23.69994   473.4987   32.2316   
2899.8     0.2128     252.9581   4.868      23.2842    35.4214    16.3984    11.1594    11.6923    176.535    13.2758    5.314      7.668      4.988      2.4323     22.6097    472.999    29.5086   
2900       0.212      248.149    4.369      22.9844    35.9158    15.6132    10.7595    10.8986    181.515    12.3814    5.144      7.668      5.205      2.4339     22.6097    470.998    28.1751   
2900.2     0.212      243.4342   5.1791     21.8898    33.6474    14.7198    10.2485    10.5069    186.198    12.1374    4.891      7.723      5.416      2.342      20.9153    469.002    25.8168   
2900.4001  0.2127996  235.2811   4.9353     22.38685   33.23961   14.92255   10.55924   9.9089     187.3774   11.98822   5.389      7.889      4.781      2.4067     20.4169    467.0013   30.555    
2900.6001  0.212      246.5481   5.1466     21.88945   31.87237   14.4218    10.04845   9.516986   190.2978   11.63575   4.843      7.838      4.866      2.4585     20.41685   465.5005   30.6857   
2900.8     0.212      245.1147   4.7125     21.1926    29.8958    14.2324    9.9596     8.723799   193.8111   11.1481    4.911      7.893      5.012      2.4221     20.3172    464.501    29.2187   
2901       0.2112     244.923    4.8982     19.8006    27.7146    13.6368    10.204     8.9196     195.573    11.7444    5.077      8.008      5.234      2.392      20.1179    465.001    27.4632   
2901.2     0.2056     247.4494   4.7752     20.2979    28.0055    13.6368    10.1596    8.5176     192.058    12.2052    4.227      6.739      5.146      2.2927     20.6163    467.002    26.6938   
2901.4001  0.1983992  244.1782   4.8959     20.49805   26.92969   13.83939   10.60402   8.816447   190.8828   11.31097   3.263      5.979      5.097      2.2199     19.9188    468.0025   26.0235   
2901.6001  0.1968     245.4478   4.4409     20.99484   27.5111    13.04085   10.64869   8.517797   196.4446   11.86626   3.919      6.616      4.961      2.3465     20.31725   469.002    28.5326   
2901.8     0.1968     244.6525   4.9585     20.4978    27.5111    12.5538    11.2483    8.9196     197.622    11.5818    3.836      6.161      4.848      2.3633     20.4169    469.002    29.4972   
2902       0.1968     247.7614   4.5013     20.4978    27.7146    12.4455    11.3594    8.8166     196.444    11.6089    3.228      5.75       5.072      2.4249     20.4169    467.002    28.8727   
2902.2     0.1968     249.8419   4.933      20.6953    28.4126    12.9463    11.3594    9.0227     200.543    12.8015    3.702      6.533      5.02       2.4575     20.8156    467.002    29.6421   
2902.4001  0.198402   247.6744   4.2692     20.49819   27.71494   12.25559   11.04863   8.81624    203.1898   12.21856   4.235      7.023      5.266      2.2868     21.31395   467.5025   25.9431   
2902.6001  0.2024008  236.1649   4.6823     21.29235   28.41235   11.66035   11.73715   8.125901   210.8023   11.93401   4.188      7.067      4.65       2.3309     21.41319   468.5028   30.4216   
2902.8     0.204      240.0235   4.2576     20.9951    27.9182    11.755     11.8482    7.930099   217.531    11.758     4.891      7.276      4.526      2.2569     20.6163    469.998    30.2421   
2903       0.204      255.6862   4.9632     21.1926    27.5983    11.2677    11.8482    7.5282     218.402    11.6767    4.144      6.703      4.637      2.3499     20.7159    471.999    30.7933   
2903.2     0.204      256.3293   5.5365     20.9951    28.0927    10.2794    11.4483    7.229199   215.769    11.5276    3.887      6.422      4.561      2.2486     20.7159    473.499    29.8704   
2903.4001  0.2040008  242.1147   4.7752     20.3981    27.80244   10.57749   12.13685   7.136401   210.2026   11.74433   4.061      6.446      4.548      2.3162     20.41644   474.4998   30.9584   
2903.6001  0.2056012  239.9464   4.8727     20.795     28.90665   10.96964   11.64795   6.940178   205.5224   11.59516   3.737      6.371      4.538      2.348      19.5201    476        31.4952   
2903.8     0.208      254.1927   5.4321     20.3979    28.209     10.469     11.1594    6.147      206.1069   11.3243    5.124      7.822      4.647      2.3265     19.9186    477.999    30.3771   
2904       0.2112     260.8975   5.2441     19.2033    26.8131    10.469     9.6486     6.3428     202.592    11.365     6.507      8.997      4.68       2.2425     20.3172    479.499    28.9416   
2904.2     0.2144     236.9833   5.0839     20.0005    28.0927    9.8869     9.3597     5.5492     198.206    12.0019    6.487      8.933      4.581      2.4382     19.5199    478.999    32.4928   
2904.4001  0.2143956  230.0091   4.8703     21.29146   27.51007   10.37405   8.960223   6.239801   189.4196   11.03932   7.103      9.222      4.631      2.2931     20.31715   479.999    30.0082   
2904.6001  0.2055968  233.2307   5.5481     19.30345   25.53472   10.07664   9.848354   6.446315   178.8772   10.296     4.413      7.794      4.641      2.323      20.21804   479.9995   30.3742   
2904.8     0.1992     237.1117   5.3276     19.6007    28.0927    10.5773    9.5597     7.3323     169.506    14.3329    3.943      6.351      5.217      2.427      21.1146    480.999    28.0072   
2905       0.2        236.6506   4.8355     20.2979    28.4126    11.755     9.448599   7.7343     159.557    13.0996    3.496      6.319      5.193      2.2519     23.2021    484        25.9      
2905.2     0.1992     209.1575   5.056      20.4978    26.435     11.8633    9.0486     7.930099   151.36     11.2836    4.342      7.063      4.77       2.336      23.1025    488        29.6493   
2905.4001  0.2040056  218.3203   4.5895     21.29322   27.51334   12.0536    8.359648   8.9196     148.7266   13.92799   4.567      7.242      5.255      2.4649     22.70831   493.504    28.2641   
2905.6001  0.215202   245.1501   5.4158     22.78735   32.37201   13.54219   7.871      8.9195     149.8962   17.76147   10.114     13.335     6.244      2.5867     20.81375   501.5052   24.6053   
2905.8     0.2192     237.4588   5.0491     29.2544    41.9649    13.9346    7.871      8.723799   154.29     17.5041    13.282     13.959     5.922      2.4771     17.4268    509.999    24.8665   
2906       0.2168     223.1571   4.687      25.1735    35.8286    14.0293    6.2713     7.930099   162.774    9.305      12.389     14.39      5.425      2.3222     14.1432    516.999    25.5283   
2906.2     0.216      223.9564   5.5063     21.3925    31.6698    12.2559    5.1826     7.1365     174.486    8.5732     7.415      8.933      4.599      2.2803     11.5518    520.5      30.0527   
2906.4001  0.221602   233.0625   5.9938     16.81266   27.50813   10.37368   5.382339   6.146515   185.6193   7.177283   8.81       10.021     4.677      2.2719     10.45488   523.5007   29.3838   
2906.6001  0.2255988  250.3096   5.9706     13.82983   22.15782   9.38553    5.0715     5.250295   196.4471   6.946889   10.386     10.139     4.568      2.1766     9.458445   525.001    28.7651   
2906.8     0.2232     244.3237   6.6135     12.7358    18.2048    8.492499   5.0715     5.446101   202.592    6.7301     8.739      9.59       4.263      2.1973     8.9604     527        31.3689   
2907       0.2192     247.0974   6.4789     12.6359    14.9476    8.6008     6.4713     6.0439     207.869    6.1067     7.463      8.921      4.347      2.1741     7.9637     527        30.3426   
2907.2     0.2176     237.3973   6.27       11.3438    13.3481    9.8869     7.36       6.940599   209.621    5.8492     8.49       9.234      4.031      2.1577     7.3657     526.5      32.6981   
