~Version
 VERS              .         3.0                           : CWLS LOG ASCII STANDARD - VERSION 3.0
 WRAP              .         NO                            : ONE LINE PER DEPTH STEP
 DLM               .         SPACE                         : DELIMITING CHARACTER(SPACE TAB OR COMMA)
~Well Information
#_______________________________________________________________________________
#
#PARAMETER_NAME    .UNIT     VALUE                         : DESCRIPTION
#_______________________________________________________________________________
STRT               .M        2850                          : First reference value
STOP               .M        2930                          : Last reference value
STEP               .M        0.2                           : Step increment
NULL               .         -9999                         : Missing value
COMP               .                                       : Company
WELL               .         59P                           : Well name
FLD                .         0317                          : Field
LOC                .         76.931794, 0.464915           : Location
SRVC               .                                       : Service Company
CTRY               .                                       : Country
DATE               .         2002-09-26                    : Service Date
X                  .m        536919.31                     : X or East-West coordinate
Y                  .m        6438948.67                    : Y or North South coordinate
GDAT               .                                       : Geodetic Datum
HZCS               .                                       : Horizontal Co-ordinate System
EREF               .m        120.14                        : 120.14
PROV               .         1                             : Province
UWI                .         03170005900                   : Unique well id
~Parameter Information Block
#_______________________________________________________________________________
#
#PARAMETER_NAME    .UNIT     VALUE                         : DESCRIPTION
#_______________________________________________________________________________
SET                .         59P                           : 
TLFamily_DS        .         Caliper                       : 
TLFamily_DT        .         Compressional Slowness        : 
TLFamily_GR        .         Gamma Ray                     : 
TLFamily_GZ1       .         Extra Shallow Resistivity     : 
TLFamily_GZ2       .         Shallow Resistivity           : 
TLFamily_GZ3       .         Medium Resistivity            : 
TLFamily_GZ3R      .         Medium Resistivity            : 
TLFamily_GZ4       .         Deep Resistivity              : 
TLFamily_ILD       .         Conductivity                  : 
TLFamily_LLD       .         Lateral Log Resistivity       : 
TLFamily_MD        .         Measured Depth                : 
TLFamily_MGZ       .         Micro Gradient Resistivity    : 
TLFamily_MPZ       .         Micro Potential Resistivity   : 
TLFamily_NKTD      .         Neutron Far                   : 
TLFamily_NKTS      .         Neutron Near                  : 
TLFamily_PZ        .         Potential Resistivity         : 
TLFamily_SP        .         Spontaneous Potential         : 
TLFamily_W         .         Neutron Porosity              : 
~Curve Information
#_______________________________________________________________________________
#
#LOGNAME           .UNIT     LOG_ID                        : DESCRIPTION
#_______________________________________________________________________________
MD                 .M                                      :  {F}
DS                 .m                                      :  {F}
DT                 .ms/m                                   :  {F}
GR                 .gapi                                   :  {F}
GZ1                .ohmm                                   :  {F}
GZ2                .ohmm                                   :  {F}
GZ3                .ohmm                                   :  {F}
GZ3R               .ohmm                                   :  {F}
GZ4                .ohmm                                   :  {F}
ILD                .msim/m                                 :  {F}
LLD                .ohmm                                   :  {F}
MGZ                .ohmm                                   :  {F}
MPZ                .ohmm                                   :  {F}
NKTD               .ue                                     :  {F}
NKTS               .ue                                     :  {F}
PZ                 .ohmm                                   :  {F}
SP                 .mv                                     :  {F}
W                  .%                                      :  {F}
~Ascii
# ...
2923.8     0.22       264.4568   7.21       11.6412    14.2496    10.672     7.760001   8.126      127.352    7.5433     7.573      6.304      2.877      1.8903     10.9538    562        40.8326   
2924       0.2184     263.7049   7.0754     11.9387    14.8313    10.5773    7.871      8.3218     129.401    7.570401   7.415      6.426      2.885      1.8853     10.5551    561        40.5914   
2924.2     0.2168     259.3832   6.8433     11.6412    14.9476    10.5773    7.4711     8.723799   133.5      7.3671     7.348      6.323      2.999      1.8481     10.5551    560        38.1024   
2924.4001  0.2168     260.9188   7.3052     11.54145   14.33686   10.67215   7.560339   8.620896   136.4319   7.543293   7.644      6.553      2.797      1.8559     10.4555    562        41.2732   
2924.6001  0.2168004  264.9208   7.0754     11.84115   14.24974   10.96995   8.270795   9.022797   140.2327   7.529575   7.601      6.351      2.71       1.7743     10.65475   562.0005   40.6775   
2924.8     0.2176     266.9594   7.3934     11.9387    14.5404    11.0646    7.871      9.2185     141.697    7.2858     8.292      6.331      2.778      1.7909     10.5551    563        40        
2925       0.2184     266.3289   7.029      11.5413    13.7552    11.2677    8.271      9.3113     144.034    7.0554     7.028      5.738      2.903      1.8195     10.1564    563        38.8144   
2925.2     0.2192     267.0918   7.5861     11.6412    13.9588    10.9699    8.9598     9.7133     146.964    7.488999   8.506      6.652      2.815      1.8597     9.9571     563        41.078    
2925.4001  0.2200008  263.9628   7.5327     11.4414    13.95866   10.96985   8.959755   9.5174     147.5504   7.001139   7.162      5.691      2.796      1.8169     9.358684   562.5      40.3474   
2925.6001  0.2216     262.1561   7.3075     11.64125   13.66779   10.87473   8.8709     9.517146   152.2401   6.879019   7.514      5.378      2.583      1.7849     8.5616     562.4998   43.1091   
2925.8     0.2216     261.2786   7.9598     11.7412    13.2608    10.1711    8.8709     9.0227     150.478    6.526899   6.112      4.631      2.834      1.8154     8.3624     562        39.7273   
2926       0.2208     261.3482   7.4979     10.5467    11.8649    8.6955     9.3597     8.022901   154.874    6.1067     6.325      4.975      2.931      1.8408     7.7643     561.5      38.9062   
2926.2     0.22       259.0943   7.5814     9.751901   10.6725    8.0999     8.1599     6.940599   161.309    4.9683     5.132      4.002      3.139      1.8354     7.266      561        36.0053   
2926.4001  0.2191996  255.806    8.3172     7.76035    10.17764   7.504446   7.671389   6.342701   171.5569   4.819539   4.346      3.682      3.013      1.8412     6.773345   560.5002   37.7708   
2926.6001  0.2183996  255.2083   7.86       7.85989    9.305346   7.801686   8.270517   6.146895   173.3164   5.320958   5.057      4.374      2.924      1.9613     7.067032   561.0002   41.757    
2926.8     0.2176     258.6542   7.5977     7.262899   8.8113     7.0169     7.36       5.9408     170.1      5.8628     5.796      5.082      3.206      1.9613     7.7643     561.5      37.8067   
2927       0.2176     246.9507   7.2077     7.4628     8.026      6.9221     7.36       5.5492     163.952    6.4184     6.989      5.73       3.343      1.968      8.163      561        36.2723   
2927.2     0.2176     247.9307   6.5578     8.7549     7.124499   6.123401   6.7601     4.8586     158.676    6.323599   6.459      5.469      3.561      1.8604     9.060101   561        31.8397   
2927.4001  0.2192004  235.0109   7.029      8.954848   8.201106   6.516507   6.471494   5.353579   156.9222   6.255977   6.443      6.157      3.42       2          8.561895   560.5      36.011    
2927.6001  0.22       235.9246   8.1478     9.054894   9.509748   7.612736   6.870418   5.940995   155.4571   6.621793   6.724      5.9        3.692      2.0002     8.960144   560.4998   33.1359   
2927.8     0.22       244.9621   7.86       9.4521     10.6725    8.0999     5.4714     6.3428     153.696    6.8114     7.123      5.888      3.256      2.0443     8.462      560        38.8847   
2928       0.2216     245.3435   6.3582     10.1493    11.2832    8.303      5.4714     6.3428     153.696    6.8657     7.577      6.141      3.548      1.9618     8.3624     559.5      33.8708   
2928.2     0.2216     249.1521   7.781      10.4467    12.1848    8.3977     5.4714     6.8376     158.092    6.039      6.736      5.952      3.648      1.9494     7.7643     558.5      33.6426   
2928.4001  0.2208008  248.2898   8.4147     9.848199   10.67205   8.492404   5.471082   6.837697   167.172    5.131209   5.875      4.437      3.503      2.048      7.465042   560.4998   37.3029   
2928.6001  0.2224     267.6751   8.3172     7.563132   9.799791   8.302799   4.871455   7.033301   171.2706   5.564814   4.527      4.287      3.209      2.0389     6.967146   560.0002   39.3871   
2928.8     0.2224     255.374    7.7741     8.2576     9.3929     7.910399   4.7826     6.8376     176.535    5.795      6.123      4.971      3.278      1.9548     7.266      560.5      36.7804   
2929       0.22       254.415    7.4909     7.4628     9.0148     8.492499   4.2716     7.033401   176.535    5.7679     6.21       5.615      3.491      1.9557     7.7643     560.5      34.3589   
2929.2     0.2192     250.7067   7.4909     8.2576     9.1021     8.3977     3.8717     7.3323     177.713    6.0661     4.235      4.239      3.922      2.0386     7.565      561        31.6574   
2929.4001  0.2175996  243.52     7.9923     8.658088   10.17849   8.3978     4.005087   8.229096   182.983    5.984348   6.289      5.722      3.638      1.9996     6.772661   561.9998   33.6527   
2929.6001  0.2168     251.5708   7.4422     10.14861   10.99204   8.6008     4.18261    8.424947   188.837    5.144041   6.214      5.758      3.372      1.8821     5.776399   561.4998   34.2254   
2929.8     0.2168     241.0138   7.3006     8.8548     10.2944    8.6008     4.005      8.5176     201.137    4.304299   3.895      3.812      3.097      1.8103     5.5771     561        35.9895   
2930       0.216      259.9507   6.8317     7.063001   8.607699   7.8021     4.3827     8.3218     219.8681   4.3721     5.08       4.5        2.765      1.7517     4.7798     561.5      39.268    
