~Version
 VERS              .         3.0                           : CWLS LOG ASCII STANDARD - VERSION 3.0
 WRAP              .         NO                            : ONE LINE PER DEPTH STEP
 DLM               .         SPACE                         : DELIMITING CHARACTER(SPACE TAB OR COMMA)
~Well Information
#_______________________________________________________________________________
#
#PARAMETER_NAME    .UNIT     VALUE                         : DESCRIPTION
#_______________________________________________________________________________
STRT               .M        2850                          : First reference value
STOP               .M        2930                          : Last reference value
STEP               .M        0.2                           : Step increment
NULL               .         -9999                         : Missing value
COMP               .                                       : Company
WELL               .         59P                           : Well name
FLD                .         0317                          : Field
LOC                .         76.931794, 0.464915           : Location
SRVC               .                                       : Service Company
CTRY               .                                       : Country
DATE               .         2002-09-26                    : Service Date
X                  .m        536919.31                     : X or East-West coordinate
Y                  .m        6438948.67                    : Y or North South coordinate
GDAT               .                                       : Geodetic Datum
HZCS               .                                       : Horizontal Co-ordinate System
EREF               .m        120.14                        : 120.14
PROV               .         1                             : Province
UWI                .         03170005900                   : Unique well id
~Parameter Information Block
#_______________________________________________________________________________
#
#PARAMETER_NAME    .UNIT     VALUE                         : DESCRIPTION
#_______________________________________________________________________________
SET                .         59P                           : 
TLFamily_DS        .         Caliper                       : 
TLFamily_DT        .         Compressional Slowness        : 
TLFamily_GR        .         Gamma Ray                     : 
TLFamily_GZ1       .         Extra Shallow Resistivity     : 
TLFamily_GZ2       .         Shallow Resistivity           : 
TLFamily_GZ3       .         Medium Resistivity            : 
TLFamily_GZ3R      .         Medium Resistivity            : 
TLFamily_GZ4       .         Deep Resistivity              : 
TLFamily_ILD       .         Conductivity                  : 
TLFamily_LLD       .         Lateral Log Resistivity       : 
TLFamily_MD        .         Measured Depth                : 
TLFamily_MGZ       .         Micro Gradient Resistivity    : 
TLFamily_MPZ       .         Micro Potential Resistivity   : 
TLFamily_NKTD      .         Neutron Far                   : 
TLFamily_NKTS      .         Neutron Near                  : 
TLFamily_PZ        .         Potential Resistivity         : 
TLFamily_SP        .         Spontaneous Potential         : 
TLFamily_W         .         Neutron Porosity              : 
~Curve Information
#_______________________________________________________________________________
#
#LOGNAME           .UNIT     LOG_ID                        : DESCRIPTION
#_______________________________________________________________________________
MD                 .M                                      :  {F}
DS                 .m                                      :  {F}
DT                 .ms/m                                   :  {F}
GR                 .gapi                                   :  {F}
GZ1                .ohmm                                   :  {F}
GZ2                .ohmm                                   :  {F}
GZ3                .ohmm                                   :  {F}
GZ3R               .ohmm                                   :  {F}
GZ4                .ohmm                                   :  {F}
ILD                .msim/m                                 :  {F}
LLD                .ohmm                                   :  {F}
MGZ                .ohmm                                   :  {F}
MPZ                .ohmm                                   :  {F}
NKTD               .ue                                     :  {F}
NKTS               .ue                                     :  {F}
PZ                 .ohmm                                   :  {F}
SP                 .mv                                     :  {F}
W                  .%                                      :  {F}
~Ascii
2850.0     0.2184     290.5467   12.0426    11.3438    11.6904    7.5043     8.759801   6.7345     146.38     7.1638     6.72       5.386      2.836      1.8626     10.1564    556.999    40.8153   
2850.2     0.2184     298.0601   11.655     10.2493    11.8649    7.0169     8.6709     6.3428     146.38     7.0825     6.704      5.805      2.651      1.8486     10.3558    556.999    43.5282   
2850.4001  0.22       286.106    12.9014    11.54099   12.4755    7.504354   8.76009    6.044138   146.0834   6.933346   5.922      6.082      2.719      1.8105     9.7576     557.4988   41.4282   
2850.6001  0.22       281.1915   12.6995    10.94348   12.27175   7.612646   9.360215   6.538654   146.9637   6.824945   6.59       5.196      2.713      1.8154     9.558547   556.9993   41.6493   
2850.8     0.22       283.3874   13.3981    9.9494     11.7776    7.910399   10.4484    6.4459     146.38     6.7166     5.776      4.805      2.637      1.845      9.8574     557.499    43.6847   
2851       0.2192     300.9235   12.848     10.0494    12.1848    8.492499   10.7595    6.538701   145.212    7.1774     6.068      5.117      3.038      1.875      9.7577     557.499    38.1756   
2851.2     0.2208     290.3096   13.0128    11.3438    12.0685    9.088101   11.8482    7.229199   143.449    7.461901   6.021      5.109      2.696      1.8814     9.9571     556.999    43.5613   
2851.4001  0.2240008  284.1632   13.1103    11.64068   12.56245   9.087851   12.04814   7.033144   141.9838   7.136859   7.091      4.817      2.536      1.8391     10.95355   556.4985   45.3914   
2851.6001  0.2256008  280.5166   13.1103    10.64689   11.69049   8.600599   11.93664   6.538278   141.6979   7.461853   6.404      4.619      2.895      1.9603     10.45535   555.4993   42.1818   
2851.8     0.2272     285.5644   13.2008    11.2439    11.8649    8.2082     11.0483    5.745      143.449    7.3671     7.127      5.196      2.865      1.8345     10.3558    555.999    39.7144   
2852       0.2272     272.1568   13.2008    10.2493    11.5741    8.0999     10.5595    5.250199   145.212    6.4862     5.278      3.828      2.68       1.863      10.3558    556.999    43.3775   
2852.2     0.2256     256.9654   13.296     11.044     11.3705    8.0999     10.2485    5.1575     146.38     7.014699   4.618      3.326      2.758      1.9539     10.3558    556.999    44.2761   
2852.4001  0.2239988  287.1949   13.3865    10.04935   10.8761    7.503885   9.648499   4.858495   145.211    7.421433   5.713      4.219      3.051      1.9619     10.65465   556.499    39.8967   
2852.6001  0.2215996  288.9537   13.484     9.949595   10.87634   6.718997   9.448555   4.652451   143.1608   7.692353   6.526      5.805      3.146      2          10.35609   556.499    39.4101   
2852.8     0.2208     270.359    13.5745    10.3468    11.3705    6.516      9.3597     4.755499   140.816    7.8007     7.234      5.524      3.116      2.0064     10.9538    556.499    39.9584   
2853       0.22       266.3503   13.672     10.5467    11.196     6.7191     8.759801   4.8586     140.232    7.7736     6.669      5.418      3.058      1.9871     11.0535    556.499    40.3546   
2853.2     0.22       259.7141   13.7672    10.8441    12.0685    7.3147     8.8709     5.5492     139.648    7.6246     7.249      5.896      2.987      1.9742     10.4554    556.499    41.0952   
2853.4001  0.22       263.8661   13.7672    11.0439    13.66779   8.303332   8.560224   5.446338   141.9843   7.109518   6.752      5.343      2.929      1.9612     10.1564    556.4985   41.678    
2853.6001  0.22       262.3008   13.8577    10.8439    13.2607    8.993546   9.448599   5.940852   142.5774   6.94708    6.092      4.821      2.858      1.9419     10.1563    555.4995   42.3397   
2853.8     0.22       272.0739   13.9552    10.4467    13.0572    9.291201   9.448599   6.0439     141.4      7.1096     6.258      5.287      2.8        1.9289     9.9571     556.499    42.9684   
2854       0.2192     286.7851   14.0457    10.6466    11.7776    9.196401   10.0485    6.3428     138.767    7.1367     6.266      5.291      2.742      1.9097     9.8574     557.499    43.478    
2854.2     0.22       285.7755   14.0388    10.4467    11.7776    9.196401   9.5597     6.8376     135.252    7.380599   6.38       5.611      2.684      1.9031     10.6548    557.499    44.322    
2854.4001  0.22       287.9514   13.9482    11.24395   12.18429   9.778553   9.848556   7.229251   131.448    7.367234   6.87       6.043      2.555      1.8644     10.85439   557.499    45.6986   
2854.6001  0.2199996  287.4311   13.751     11.34344   11.196     9.683599   9.959544   7.332495   125.5894   7.638141   6.803      5.639      2.484      1.8452     11.45298   557.499    46.5742   
2854.8     0.2192     296.2424   13.6581    10.6466    11.196     9.291201   9.8485     7.7343     124.422    7.7194     6.886      5.75       2.426      1.8386     13.3459    557.499    47.5833   
2855       0.2184     285.2775   12.9571    11.6412    12.0685    10.2794    11.1594    9.1155     121.204    7.7059     6.669      5.659      2.355      1.8193     12.7479    557.499    48.5665   
2855.2     0.2216     286.4867   15.19      12.5359    14.6568    11.4572    14.4256    11.1975    117.106    8.7765     6.629      5.437      2.297      1.8        13.3459    557.499    49.3043   
2855.4001  0.2240008  293.5304   17.6713    13.23372   16.2274    12.25614   18.1148    13.08418   111.5419   9.44072    7.514      4.405      2.232      1.7871     14.94117   556.9985   50.4455   
2855.6001  0.2256004  310.6858   20.1433    14.52775   16.63445   12.7429    20.00314   14.073     111.2428   9.888321   7.763      3.899      2.174      1.7742     16.13191   555.9988   51.4646   
2855.8     0.2264     321.6793   19.4377    14.825     16.7216    11.9581    21.3134    13.6713    106.849    10.9855    8.237      5.703      2.275      1.7711     17.8255    555.499    48.9512   
2856       0.2272     318.2886   17.235     15.9196    16.8088    11.4572    21.8911    13.7743    103.929    11.8257    11.65      8.446      2.346      1.745      18.8222    556.999    46.6373   
2856.2     0.2264     306.7195   17.6644    17.7114    19.6007    12.1476    23.402     13.3827    100.998    12.2052    9.651      4.869      2.418      1.7189     18.2242    556.499    44.4326   
2856.4001  0.2255996  290.0602   18.0009    19.4034    22.65522   11.86267   24.57999   12.68101   100.9989   11.5815    10.351     8.45       2.484      1.6932     17.62564   556.499    42.4861   
2856.6001  0.2247996  314.7203   18.3352    19.79982   24.3406    10.67148   25.37889   11.19653   102.7523   10.99859   9.643      5.948      2.405      1.8038     16.53009   556.499    47.0493   
2856.8     0.224      320.6624   18.4976    18.3087    23.3523    9.683799   24.3796    9.4144     105.394    10.1995    8.32       5.018      2.461      1.8094     17.1278    556.499    46.0546   
2857       0.2232     308.1717   18.6323    16.8143    21.6656    8.7903     24.0019    7.7343     107.443    9.2779     8.403      6.675      2.572      1.8686     17.0281    556.999    45.4718   
2857.2     0.2216     304.8186   18.3491    14.4277    19.1936    7.910399   24.4907    6.4459     105.978    9.305      6.088      6.181      2.684      1.9206     17.1278    556.999    44.7526   
2857.4001  0.2175996  296.6375   16.8961    14.92571   20.18302   8.208792   26.69107   5.940542   100.6991   11.14779   6.23       6.655      2.706      1.7712     17.22794   556.4988   40.6675   
2857.6001  0.2168008  284.4322   15.3873    16.41584   21.45999   9.480603   28.26872   5.445841   96.89743   10.55131   9.272      6.351      2.684      1.7744     18.12485   555.9985   41.1067   
2857.8     0.2184     279.2584   15.3757    14.4277    17.7976    9.291201   29.9565    4.9513     92.5041    9.6167     7.388      6.43       2.671      1.8357     18.8222    554.999    42.8608   
2858       0.22       302.4022   15.3502    15.3223    19.1936    9.8869     32.245     4.6524     89.87071   11.243     6.997      6.438      2.648      1.9002     20.0182    556.999    44.8861   
