~Version
 VERS              .         3.0                           : CWLS LOG ASCII STANDARD - VERSION 3.0
 WRAP              .         NO                            : ONE LINE PER DEPTH STEP
 DLM               .         SPACE                         : DELIMITING CHARACTER(SPACE TAB OR COMMA)
~Well Information
#_______________________________________________________________________________
#
#PARAMETER_NAME    .UNIT     VALUE                         : DESCRIPTION
#_______________________________________________________________________________
STRT               .M        2850                          : First reference value
STOP               .M        2930                          : Last reference value
STEP               .M        0.2                           : Step increment
NULL               .         -9999                         : Missing value
COMP               .                                       : Company
WELL               .         59P                           : Well name
FLD                .         0317                          : Field
LOC                .         76.931794, 0.464915           : Location
SRVC               .                                       : Service Company
CTRY               .                                       : Country
DATE               .         2002-09-26                    : Service Date
X                  .m        536919.31                     : X or East-West coordinate
Y                  .m        6438948.67                    : Y or North South coordinate
GDAT               .                                       : Geodetic Datum
HZCS               .                                       : Horizontal Co-ordinate System
EREF               .m        120.14                        : 120.14
PROV               .         1                             : Province
UWI                .         03170005900                   : Unique well id
~Parameter Information Block
#_______________________________________________________________________________
#
#PARAMETER_NAME    .UNIT     VALUE                         : DESCRIPTION
#_______________________________________________________________________________
SET                .         59P                           : 
TLFamily_DS        .         Caliper                       : 
TLFamily_DT        .         Compressional Slowness        : 
TLFamily_GR        .         Gamma Ray                     : 
TLFamily_GZ1       .         Extra Shallow Resistivity     : 
TLFamily_GZ2       .         Shallow Resistivity           : 
TLFamily_GZ3       .         Medium Resistivity            : 
TLFamily_GZ3R      .         Medium Resistivity            : 
TLFamily_GZ4       .         Deep Resistivity              : 
TLFamily_ILD       .         Conductivity                  : 
TLFamily_LLD       .         Lateral Log Resistivity       : 
TLFamily_MD        .         Measured Depth                : 
TLFamily_MGZ       .         Micro Gradient Resistivity    : 
TLFamily_MPZ       .         Micro Potential Resistivity   : 
TLFamily_NKTD      .         Neutron Far                   : 
TLFamily_NKTS      .         Neutron Near                  : 
TLFamily_PZ        .         Potential Resistivity         : 
TLFamily_SP        .         Spontaneous Potential         : 
TLFamily_W         .         Neutron Porosity              : 
~Curve Information
#_______________________________________________________________________________
#
#LOGNAME           .UNIT     LOG_ID                        : DESCRIPTION
#_______________________________________________________________________________
MD                 .M                                      :  {F}
DS                 .m                                      :  {F}
DT                 .ms/m                                   :  {F}
GR                 .gapi                                   :  {F}
GZ1                .ohmm                                   :  {F}
GZ2                .ohmm                                   :  {F}
GZ3                .ohmm                                   :  {F}
GZ3R               .ohmm                                   :  {F}
GZ4                .ohmm                                   :  {F}
ILD                .msim/m                                 :  {F}
LLD                .ohmm                                   :  {F}
MGZ                .ohmm                                   :  {F}
MPZ                .ohmm                                   :  {F}
NKTD               .ue                                     :  {F}
NKTS               .ue                                     :  {F}
PZ                 .ohmm                                   :  {F}
SP                 .mv                                     :  {F}
W                  .%                                      :  {F}
~Ascii
# ...
2866.4001  0.22       312.6988   40.4438    37.51038   101.2329   104.448    269.6981   67.69389   16.96617   50.12476   16.241     14.311     2.471      1.6524     127.4931   550.4988   41.6177   
2866.6001  0.2200004  331.1909   50.7426    35.72453   99.06202   106.5227   272.0727   72.65276   15.21434   51.68277   18.394     16.436     2.428      1.872      133.7658   549.9985   48.4574   
2866.8     0.2208     360.3847   34.2627    41.3923    118.567    116.4      269.297    79.88491   14.3337    88.0564    18.714     23.13      3.025      2.1493     137.446    548.999    44.4225   
2867       0.22       286.4257   31.4564    46.26789   130.811    134.283    256.855    90.58381   13.7496    69.40869   24.3       23.38      2.574      1.8819     140.038    548.499    45.7847   
2867.2     0.22       268.2415   49.3082    47.6623    138.052    153.263    249.367    100.695    13.1556    52.2111    16.822     10.006     2.352      1.7446     139.44     547.999    46.4938   
2867.4001  0.22       337.7932   61.5521    48.6568    147.6513   177.0874   253.2593   114.2776   13.15515   51.65213   18.935     16.368     2.131      1.6143     139.4401   547.9988   47.5546   
2867.6001  0.2200004  366.3204   58.4046    48.25701   152.2188   201.3974   262.1222   130.5293   12.28496   45.53487   19.56      17.388     2.178      1.5922     139.5397   547.4985   45.7933   
2867.8     0.2208     360.5335   49.6262    47.8598    160.126    218.88     266.497    141.625    13.4526    56.6426    17         17.171     2.039      1.6065     141.034    546.498    49.59     
2868       0.2208     357.7772   53.4282    48.35711   158.323    228.058    260.232    143.8      13.7496    50.00211   20.875     17.954     2.013      1.614      142.629    547.999    50.5172   
2868.2     0.2224     363.5716   60.6375    46.8652    155.065    232.512    241.213    138.358    13.1556    54.93499   19.832     17.989     2.007      1.4933     143.327    548.999    46.6617   
2868.4001  0.2232008  379.8819   67.8446    48.4575    157.7411   238.0512   218.4053   134.0899   13.75016   57.95337   27.469     17.854     1.935      1.4775     145.215    548.999    47.968    
2868.6001  0.2248     370.5702   74.3368    49.25449   157.9458   242.4913   198.0115   131.9164   14.9178    50.77695   25.509     14.596     1.824      1.4968     145.2141   548.999    51.7876   
2868.8     0.2248     379.0266   70.7391    49.8491    161.609    247.43     183.666    132.802    14.9178    55.9379    28.504     15.422     1.704      1.513      143.526    548.999    56.2632   
2869       0.2248     383.9791   64.9641    50.84611   164.662    252.764    174.312    138.554    14.9178    53.3359    20.887     11.77      1.79       1.4512     142.131    549.499    51.1115   
2869.2     0.224      389.5013   60.1083    51.0436    167.745    255.241    168.535    147.871    14.9178    58.82451   23.881     14.49      1.548      1.4967     140.038    549.999    61.5397   
2869.4001  0.2231992  386.2535   63.5738    52.03899   172.197    259.778    163.1544   160.1618   15.7996    64.29892   18.11      18.78      1.654      1.4708     135.9489   549.999    56.3479   
2869.6001  0.2215992  388.6494   69.5669    53.63255   176.1492   263.9322   156.2019   167.8893   17.26424   62.952     16.968     18.452     1.752      1.5163     131.7686   549.999    54.7861   
2869.8     0.22       388.124    67.0949    53.73      174.376    264.136    152.026    170.568    17.5512    52.2111    16.699     18.8       1.673      1.523      127.092    549.999    57.7833   
2870       0.22       365.1206   60.4286    52.538     170.014    263.932    150.427    171.063    19.3134    49.4329    13.63      17.091     1.602      1.5424     120.812    549.999    61.3043   
2870.2     0.22       355.1969   61.9606    50.9436    166.844    264.433    152.115    173.433    20.7687    49.6226    15.044     15.929     1.787      1.5228     114.937    549.999    53.8689   
2870.4001  0.2192004  363.0826   60.1385    51.54124   168.4427   267.4912   153.1171   177.5046   20.76885   47.47648   14.499     14.762     1.895      1.5788     107.7634   549.499    52.6058   
2870.6001  0.2200004  366.6955   58.5184    52.23634   167.6214   264.0193   157.2078   176.7987   21.06599   38.58651   15.72      15.545     1.974      1.549      100.893    549.499    49.3775   
2870.8     0.2208     346.3596   56.9887    48.8544    153.088    249.109    167.157    166.497    21.6498    30.2837    15.514     13.825     1.915      1.5408     97.10748   549.499    50.7125   
2871       0.2216     358.2183   49.4381    44.9734    138.343    220.45     188.643    150.242    23.6991    23.1553    14.416     12.768     2.164      1.6215     96.01112   549.499    47.0134   
2871.2     0.2224     345.8665   49.7167    35.4221    112.315    194.174    220.3049   135.678    21.6498    29.9314    13.373     9.064      2.355      1.7738     98.2039    548.999    47.2804   
2871.4001  0.224      327.5768   53.1984    34.3276    105.3903   177.4625   242.3058   130.625    19.59942   38.94365   21.404     10.65      2.216      1.6688     103.5854   548.4985   47.2474   
2871.6001  0.2239996  336.5681   56.6824    34.52638   100.1515   166.8911   251.9681   126.6591   17.54942   39.24695   10.362     10.29      2.034      1.6741     112.8469   547.4983   51.9239   
2871.8     0.2232     353.6184   60.9091    32.53571   87.97281   159.192    256.255    126.855    14.3337    51.27599   14.752     9.301      2.476      1.9275     118.725    545.998    48.967    
2872       0.2224     336.1071   46.1143    37.8111    98.26788   154.942    245.101    132.308    13.7496    84.16699   19.943     11.568     2.987      1.895      125.896    545.498    39.3225   
2872.2     0.2216     296.3845   31.4588    39.9003    103.91     158.299    227.57     139.739    12.8685    62.6733    26.908     18.147     2.986      1.7871     130.475    546.498    36.9182   
2872.4001  0.2207996  313.3503   30.1636    45.47315   117.5807   158.6926   216.7264   143.5129   12.86893   57.79335   22.088     17.993     2.777      1.7907     131.4722   546.498    40.0144   
2872.6001  0.22       314.0454   27.9051    45.37374   123.0222   159.8841   215.6416   147.2768   13.7496    55.54313   17.474     17.182     2.561      1.7741     131.9697   546.498    43.2182   
2872.8     0.22       316.6987   28.569     46.46781   133.806    162.049    220.905    153.118    13.7496    52.1297    20.851     17.131     2.698      1.745      131.272    546.498    40.145    
2873       0.2192     326.8502   30.7555    46.6653    144.479    168.276    238.035    163.92     13.7496    47.9015    19.978     18.262     2.515      1.716      130.176    545.998    42.5206   
2873.2     0.2192     334.4792   37.7815    47.0651    149.045    179.648    262.8091   177.804    13.7496    44.9336    16.332     15.826     2.33       1.6812     131.073    545.498    45.1445   
2873.4001  0.2192004  340.0917   46.8594    45.87      147.9378   193.4896   290.303    188.9988   13.15603   43.28192   17.805     15.684     2.155      1.5938     131.9715   544.9973   46.3503   
2873.6001  0.22       351.6163   46.3998    44.87644   143.695    207.027    308.8042   192.5647   14.03641   46.86319   20.772     17.946     2.168      1.6777     135.0599   543.501    48.6455   
2873.8     0.22       354.0825   44.2829    45.9705    145.759    219.367    313.2901   193.955    13.4526    58.4586    20.508     17.761     2.188      1.7739     134.86     541.501    51.1215   
2874       0.22       347.012    42.3332    49.2542    153.786    233.202    308.1129   195.934    11.7003    54.8402    22.846     20.733     2.407      1.6973     136.25     541.501    44.0507   
2874.2     0.22       336.5981   46.1259    49.4517    150.034    242.692    306.625    192.6671   11.7003    38.7945    21.227     16.917     2.148      1.6642     136.051    541.501    48.7058   
2874.4001  0.2216008  342.9205   52.451     46.66485   145.6711   237.2439   305.6214   183.1466   11.7003    41.35531   20.16      17.526     2.174      1.5746     137.0494   541.5007   45.3282   
