~Version
 VERS              .         3.0                           : CWLS LOG ASCII STANDARD - VERSION 3.0
 WRAP              .         NO                            : ONE LINE PER DEPTH STEP
 DLM               .         SPACE                         : DELIMITING CHARACTER(SPACE TAB OR COMMA)
~Well Information
#_______________________________________________________________________________
#
#PARAMETER_NAME    .UNIT     VALUE                         : DESCRIPTION
#_______________________________________________________________________________
STRT               .M        2850                          : First reference value
STOP               .M        2930                          : Last reference value
STEP               .M        0.2                           : Step increment
NULL               .         -9999                         : Missing value
COMP               .                                       : Company
WELL               .         59P                           : Well name
FLD                .         0317                          : Field
LOC                .         76.931794, 0.464915           : Location
SRVC               .                                       : Service Company
CTRY               .                                       : Country
DATE               .         2002-09-26                    : Service Date
X                  .m        536919.31                     : X or East-West coordinate
Y                  .m        6438948.67                    : Y or North South coordinate
GDAT               .                                       : Geodetic Datum
HZCS               .                                       : Horizontal Co-ordinate System
EREF               .m        120.14                        : 120.14
PROV               .         1                             : Province
UWI                .         03170005900                   : Unique well id
~Parameter Information Block
#_______________________________________________________________________________
#
#PARAMETER_NAME    .UNIT     VALUE                         : DESCRIPTION
#_______________________________________________________________________________
SET                .         59P                           : 
TLFamily_DS        .         Caliper                       : 
TLFamily_DT        .         Compressional Slowness        : 
TLFamily_GR        .         Gamma Ray                     : 
TLFamily_GZ1       .         Extra Shallow Resistivity     : 
TLFamily_GZ2       .         Shallow Resistivity           : 
TLFamily_GZ3       .         Medium Resistivity            : 
TLFamily_GZ3R      .         Medium Resistivity            : 
TLFamily_GZ4       .         Deep Resistivity              : 
TLFamily_ILD       .         Conductivity                  : 
TLFamily_LLD       .         Lateral Log Resistivity       : 
TLFamily_MD        .         Measured Depth                : 
TLFamily_MGZ       .         Micro Gradient Resistivity    : 
TLFamily_MPZ       .         Micro Potential Resistivity   : 
TLFamily_NKTD      .         Neutron Far                   : 
TLFamily_NKTS      .         Neutron Near                  : 
TLFamily_PZ        .         Potential Resistivity         : 
TLFamily_SP        .         Spontaneous Potential         : 
TLFamily_W         .         Neutron Porosity              : 
~Curve Information
#_______________________________________________________________________________
#
#LOGNAME           .UNIT     LOG_ID                        : DESCRIPTION
#_______________________________________________________________________________
MD                 .M                                      :  {F}
DS                 .m                                      :  {F}
DT                 .ms/m                                   :  {F}
GR                 .gapi                                   :  {F}
GZ1                .ohmm                                   :  {F}
GZ2                .ohmm                                   :  {F}
GZ3                .ohmm                                   :  {F}
GZ3R               .ohmm                                   :  {F}
GZ4                .ohmm                                   :  {F}
ILD                .msim/m                                 :  {F}
LLD                .ohmm                                   :  {F}
MGZ                .ohmm                                   :  {F}
MPZ                .ohmm                                   :  {F}
NKTD               .ue                                     :  {F}
NKTS               .ue                                     :  {F}
PZ                 .ohmm                                   :  {F}
SP                 .mv                                     :  {F}
W                  .%                                      :  {F}
~Ascii
# ...
2882.8     0.2024     251.4536   5.6386     26.0682    57.2039    11.755     8.759801   11.4964    199.375    13.9941    3.951      6.679      4.85       2.3014     23.9995    481.499    28.633    
2883       0.2024     246.3915   6.3675     24.5763    49.6717    10.5773    7.9599     9.0227     202.592    13.6824    4.373      6.782      4.778      2.4834     22.6097    482.499    31.6531   
2883.2     0.204      252.9691   6.1122     22.3871    42.5465    13.4337    7.871      7.3323     204.9381   12.6931    3.504      6.3        4.865      2.4062     22.211     484.5      29.9751   
2883.4001  0.2056008  239.2913   6.27       20.99422   35.42027   19.56763   7.470787   5.847674   205.8185   12.40874   3.346      5.833      4.974      2.3309     21.51315   487.0017   28.2412   
2883.6001  0.2072004  228.0993   6.3651     19.30374   33.23897   22.6253    6.871245   5.054246   204.9365   12.8963    3.607      6.201      4.542      2.2391     21.21389   490.5027   29.8617   
2883.8     0.208      235.8927   5.9845     20.198     30.681     21.8405    6.9601     4.755499   201.721    12.8963    3.548      5.908      4.658      2.342      20.4169    496.001    30.5192   
2884       0.2096     251.9403   5.2185     20.0005    30.8846    20.0536    5.6714     4.2607     198.493    12.5982    3.56       5.975      4.72       2.3007     18.2242    501.501    29.4928   
2884.2     0.2088     246.9109   5.5945     20.2979    30.8846    18.6727    4.2716     4.2607     194.692    11.9341    3.84       6.252      4.999      2.3009     15.5331    506.502    27.6756   
2884.4001  0.2120052  238.132    5.8058     21.19076   31.66644   16.89802   3.98265    4.064636   186.4933   10.50947   4.271      6.592      4.727      2.3628     13.74414   514.002    30.3268   
2884.6001  0.2224032  253.3525   5.8267     17.80886   25.61695   14.52866   3.693844   3.5702     183.2677   7.556745   5.894      7.905      4.955      2.2775     12.8476    519.9993   27.6369   
2884.8     0.2288     242.4185   6.9338     13.533     19.1063    11.755     3.5828     3.5702     184.732    7.4484     8.683      8.826      4.848      2.296      13.0469    520.5      28.5699   
2885       0.2272     243.4595   6.3025     12.0386    18.1175    9.8869     4.2716     3.6629     181.515    9.0746     11.267     10.724     4.472      2.2646     13.3459    519.999    30.7646   
2885.2     0.224      247.8993   6.27       13.0332    16.9252    9.196401   5.782499   4.755499   177.713    9.806499   6.392      7.743      4.781      2.2902     13.8442    522        28.9287   
2885.4001  0.2239984  240.4369   6.3466     14.32863   16.43069   9.589556   6.272048   6.736153   175.3472   9.386034   6.72       8.823      4.799      2.2626     12.24892   525.5027   28.4278   
2885.6001  0.2207988  239.7714   4.3481     16.31627   16.22724   10.76916   7.96168    11.00568   175.664    8.869965   6.416      8.217      4.607      2.2997     11.152     531.0035   30.2838   
2885.8     0.2184     242.5103   5.6247     14.925     16.3144    16.6962    12.4481    22.6901    175.664    6.4184     4.788      5.892      4.225      2.0116     9.1597     538.001    28.7464   
2886       0.2184     240.8924   6.9315     14.4277    22.0727    22.734     26.2904    38.65599   155.745    5.6053     5.393      4.857      2.909      1.6077     7.7643     543.002    33.8665   
2886.2     0.2192     268.3566   7.6882     13.533     18.6119    22.03      37.222     42.5212    132.035    8.5326     11.16      10.174     2.513      1.9491     10.1564    545.498    48.7876   
2886.4001  0.2224004  276.8242   8.5377     9.652738   12.47396   13.83651   34.34776   29.22714   121.7895   8.70857    6.313      6.984      3.307      1.981      13.54505   546.498    36.9656   
2886.6001  0.2231992  254.11     9.1505     11.24424   9.595814   8.599607   21.50976   16.8429    124.7231   8.451594   6.495      6.43       3.468      2.0201     13.2462    546.498    35.846    
2886.8     0.2216     249.0595   8.7257     11.9387    8.3169     6.516      15.3366    11.7953    133.203    9.0611     9.106      6.845      3.807      2.1228     13.2462    546.498    34.1895   
2887       0.2224     241.853    8.5957     12.1386    9.3056     4.5395     13.3369    7.930099   133.5      8.2615     8.608      5.936      4.026      2.1698     14.0436    547.499    32.9436   
2887.2     0.2232     238.5867   9.8608     10.2493    11.5741    4.1469     11.8482    5.5492     131.451    8.2886     6.993      5.785      3.993      2.1398     13.3459    546.998    32.7326   
2887.4001  0.224      232.8457   9.4847     10.25041   14.25262   4.350279   12.84952   5.054682   131.4519   8.342848   7.569      5.635      3.702      2.0578     12.34851   546.9982   34.0718   
2887.6001  0.2240004  239.17     9.4615     12.73555   21.78012   4.946023   16.02515   5.651885   133.2011   8.437913   8.107      5.691      3.412      1.9869     11.05384   547.498    35.8402   
2887.8     0.2248     248.3719   9.7934     12.2385    18.4956    5.636099   15.7365    5.0544     129.401    8.8714     5.191      4.386      3.373      1.9804     11.7512    545.498    36.1603   
2888       0.2248     249.2724   9.1969     10.3468    12.97      4.8373     11.8482    3.766      128.817    8.9662     8.209      6.77       3.334      1.9803     14.2429    544.002    36.6225   
2888.2     0.224      240.0776   8.0201     11.044     11.5741    5.7308     8.8709     3.0754     127.055    9.0882     7.577      6.414      3.637      1.9559     14.1432    544.998    32.856    
2888.4001  0.2223996  240.0424   8.164      11.24385   11.8649    8.899111   8.55927    2.580794   125.5903   9.7794     10.066     7.407      3.673      2.0978     13.84449   544.9977   35.0938   
2888.6001  0.2215996  236.4536   10.1045    11.14428   11.86556   9.981552   7.560055   2.776283   126.174    9.77938    9.683      7.023      3.663      2.046      14.4421    544.5013   34.2426   
2888.8     0.2208     224.0249   8.5981     11.9387    13.2608    9.8869     7.6711     2.3745     126.174    9.738701   8.81       7.862      3.503      2.0129     14.2429    543.002    35.3292   
2889       0.22       231.7788   8.6329     12.1386    14.3369    9.9816     7.9599     2.7765     127.352    9.4405     9.011      7.648      3.463      1.9675     14.5419    540.001    34.8871   
2889.2     0.2192     237.0843   8.3056     12.4384    14.5404    10.7668    9.5597     3.364      132.035    8.3699     9.035      7.585      3.255      2.0194     14.1432    535.001    38.3938   
2889.4001  0.2192004  235.148    8.3451     12.23804   15.23976   14.83045   12.65131   5.158766   137.3038   8.221914   9.904      8.127      3.784      2.1218     15.0347    530.4977   34.3948   
2889.6001  0.2200008  255.5851   7.3934     11.34459   18.20745   20.35408   21.00387   8.426318   140.8125   10.52871   10.066     8.594      4.126      2.347      15.03581   525.9973   34.9402   
2889.8     0.2216     245.2173   5.5435     13.0332    24.3411    26.4839    24.3796    11.7953    134.084    22.5319    13.045     13.897     4.763      2.5128     17.4268    520.5      32.1785   
2890       0.2216     214.437    4.3992     18.6061    26.7259    26.9712    21.6022    12.0943    132.035    14.6039    13.551     20.404     4.907      2.3982     19.8189    515.999    29.5833   
2890.2     0.2208     203.0486   4.7427     21.0951    22.0727    20.6492    15.8254    10.105     140.816    12.2323    14.53      12.923     4.451      2.2645     19.6196    516.999    30.9168   
2890.4001  0.2199996  233.9798   5.5063     19.20305   17.21693   14.41986   10.15836   9.9089     150.4766   12.78821   11.591     11.191     4.198      2.2678     19.51912   517.0008   33.0254   
2890.6001  0.2192012  238.1195   6.4626     18.70653   19.19615   10.87376   7.960241   9.516872   147.6733   13.42364   9.292      11.081     4.51       2.3462     18.0234    520.5018   31.6861   
2890.8     0.2216     248.234    7.5861     19.8006    25.0391    8.492499   8.6709     8.5176     140.39     11.1346    8.968      10.4       4.624      2.2775     15.4334    524        29.8402   
