~Version
 VERS              .         3.0                           : CWLS LOG ASCII STANDARD - VERSION 3.0
 WRAP              .         NO                            : ONE LINE PER DEPTH STEP
 DLM               .         SPACE                         : DELIMITING CHARACTER(SPACE TAB OR COMMA)
~Well Information
#_______________________________________________________________________________
#
#PARAMETER_NAME    .UNIT     VALUE                         : DESCRIPTION
#_______________________________________________________________________________
STRT               .M        2850                          : First reference value
STOP               .M        2930                          : Last reference value
STEP               .M        0.2                           : Step increment
NULL               .         -9999                         : Missing value
COMP               .                                       : Company
WELL               .         59P                           : Well name
FLD                .         0317                          : Field
LOC                .         76.931794, 0.464915           : Location
SRVC               .                                       : Service Company
CTRY               .                                       : Country
DATE               .         2002-09-26                    : Service Date
X                  .m        536919.31                     : X or East-West coordinate
Y                  .m        6438948.67                    : Y or North South coordinate
GDAT               .                                       : Geodetic Datum
HZCS               .                                       : Horizontal Co-ordinate System
EREF               .m        120.14                        : 120.14
PROV               .         1                             : Province
UWI                .         03170005900                   : Unique well id
~Parameter Information Block
#_______________________________________________________________________________
#
#PARAMETER_NAME    .UNIT     VALUE                         : DESCRIPTION
#_______________________________________________________________________________
SET                .         59P                           : 
TLFamily_DS        .         Caliper                       : 
TLFamily_DT        .         Compressional Slowness        : 
TLFamily_GR        .         Gamma Ray                     : 
TLFamily_GZ1       .         Extra Shallow Resistivity     : 
TLFamily_GZ2       .         Shallow Resistivity           : 
TLFamily_GZ3       .         Medium Resistivity            : 
TLFamily_GZ3R      .         Medium Resistivity            : 
TLFamily_GZ4       .         Deep Resistivity              : 
TLFamily_ILD       .         Conductivity                  : 
TLFamily_LLD       .         Lateral Log Resistivity       : 
TLFamily_MD        .         Measured Depth                : 
TLFamily_MGZ       .         Micro Gradient Resistivity    : 
TLFamily_MPZ       .         Micro Potential Resistivity   : 
TLFamily_NKTD      .         Neutron Far                   : 
TLFamily_NKTS      .         Neutron Near                  : 
TLFamily_PZ        .         Potential Resistivity         : 
TLFamily_SP        .         Spontaneous Potential         : 
TLFamily_W         .         Neutron Porosity              : 
~Curve Information
#_______________________________________________________________________________
#
#LOGNAME           .UNIT     LOG_ID                        : DESCRIPTION
#_______________________________________________________________________________
MD                 .M                                      :  {F}
DS                 .m                                      :  {F}
DT                 .ms/m                                   :  {F}
GR                 .gapi                                   :  {F}
GZ1                .ohmm                                   :  {F}
GZ2                .ohmm                                   :  {F}
GZ3                .ohmm                                   :  {F}
GZ3R               .ohmm                                   :  {F}
GZ4                .ohmm                                   :  {F}
ILD                .msim/m                                 :  {F}
LLD                .ohmm                                   :  {F}
MGZ                .ohmm                                   :  {F}
MPZ                .ohmm                                   :  {F}
NKTD               .ue                                     :  {F}
NKTS               .ue                                     :  {F}
PZ                 .ohmm                                   :  {F}
SP                 .mv                                     :  {F}
W                  .%                                      :  {F}
~Ascii
# ...
2891       0.2256     247.9514   6.7783     20.0005    26.5223    8.3977     11.4483    8.126      133.5      8.5732     9.007      10.486     3.987      2.1042     13.0469    527.5      32.1986   
2891.2     0.2272     243.1357   7.7787     17.4115    24.1375    7.8021     14.1367    8.228999   123.838    7.4755     11.71      7.858      3.831      2.0002     12.1498    530        31.811    
2891.4001  0.2272     260.1271   7.8298     12.53469   18.11645   8.30458    18.82843   10.10828   122.9573   6.8929     10.86      7.241      3.56       2.0507     12.94689   530.4998   35.4196   
2891.6001  0.2272     274.6046   7.9621     10.34723   16.14288   12.14999   27.38466   19.33301   125.5881   7.096522   9.079      5.663      3.335      1.9737     12.3494    529.9995   36.4833   
2891.8     0.2272     302.3002   8.0874     11.2439    23.0615    17.9823    41.1103    26.6584    121.788    8.220899   10.319     7.126      3.199      1.8332     12.7479    529        35.2158   
2892       0.2272     296.1965   9.8283     11.5413    20.5895    23.4244    43.31      27.6479    108.898    10.6467    11.757     6.489      3.019      1.8103     16.7291    526        36.9971   
2892.2     0.2264     303.7983   8.7304     10.6466    15.442     21.9353    42.0213    22.1953    96.8997    12.2323    10.129     7.177      2.721      1.7417     21.0149    527        39.7029   
2892.4001  0.2231988  285.9576   10.0093    15.82201   16.22791   20.2564    41.82895   22.59946   94.85541   14.01578   9.375      8.108      2.202      1.6724     22.71222   521.9965   47.6809   
2892.6001  0.2208008  318.4673   7.1079     21.18382   17.70816   19.86359   60.33949   27.35157   105.3951   6.476239   13.013     11.697     1.986      1.4402     29.38591   514.9948   45.4072   
2892.8     0.2224     295.9191   3.928      9.252199   13.7552    19.0653    83.72589   32.9973    107.443    19.9163    8.201      10.544     1.541      1.2618     39.13831   506.502    51.6412   
2893       0.224      332.2359   1.4072     12.5359    22.8579    19.3631    90.1916    35.7803    90.16769   72.53921   13.681     14.26      1.349      1.3618     59.9582    496.501    64.4105   
2893.2     0.2248     379.7861   1.3074     20.6953    30.0703    20.6492    74.37181   35.5741    68.4966    143.62     11.642     12.009     1.31       1.355      70.51771   488        66.0455   
2893.4001  0.2271996  373.0038   0.8641     32.34364   38.80256   23.31767   58.72281   36.07979   64.40224   144.9588   3.603      6.369      1.424      1.3988     70.41324   479.9958   62.5718   
2893.6001  0.2263964  374.4953   1.7809     44.97818   57.5984    26.67472   46.28387   37.26284   73.48261   95.56219   17.41      17.003     1.525      1.4343     61.34905   473.496    59.7756   
2893.8     0.2192     360.4684   1.7601     55.62179   101.729    29.4486    39.9105    34.0899    87.2373    29.4299    7.463      9.918      2.222      2.002      52.8872    467.502    57.1947   
2894       0.2096     332.7046   2.4355     45.3732    111.239    30.6264    34.5336    27.5551    98.65201   19.4556    4.373      7.644      3.978      2.5553     46.1152    462.501    39.8608   
2894.2     0.2072     274.9962   3.1318     35.9194    103.125    34.092     30.3564    20.8142    108.027    18.8999    5.693      8.518      5.334      2.6864     42.3277    461.501    30.5751   
2894.4001  0.2064     257.6801   2.9926     30.64543   90.14626   33.69905   26.86679   15.06034   115.3446   20.45892   7.439      10.175     5.78       2.7152     41.0318    459.501    28.3115   
2894.6001  0.2063996  251.9236   3.032      28.7548    75.89937   33.00973   24.37861   10.99996   118.5628   21.51579   6.139      9.048      5.502      2.458      40.63274   459.5008   26.7728   
2894.8     0.2056     247.3213   2.8672     28.9546    67.70261   34.4846    22.491     8.022901   122.075    22.0982    5.914      9.004      5.335      2.4197     39.537     459.001    27.2263   
2895       0.2056     253.3773   3.0924     29.4519    61.9443    45.0574    21.6022    6.147      123.541    21.8679    6.305      9.084      5.462      2.5003     37.6488    458.501    27.5134   
2895.2     0.2056     248.3276   3.5311     30.3466    60.75199   57.2141    22.291     4.755499   125.59     20.3771    6.21       9.044      5.652      2.5738     35.456     458.001    27.3512   
2895.4001  0.2064016  247.1875   3.1434     30.34635   61.07199   61.46338   21.71378   4.260261   129.986    17.93709   6.368      9.032      5.509      2.4584     32.66454   458.0008   26.7383   
2895.6001  0.2096     235.8707   3.5125     29.8475    61.24223   58.49702   22.6906    3.466999   132.0379   16.75877   5.491      8.787      5.342      2.4136     31.1704    457.501    27.1129   
2895.8     0.2096     241.7877   3.8862     26.468     53.4523    52.47599   21.8911    3.2713     137.886    16.9078    6.72       9.534      5.431      2.6206     31.5689    457.501    29.1699   
2896       0.2032     254.4616   4.0696     25.0736    49.1773    43.0809    19.4026    3.364      141.113    17.9919    6.372      8.878      5.283      2.5291     32.3662    457.501    28.9086   
2896.2     0.1976     259.4453   3.8862     26.1682    46.9089    38.5323    17.4251    4.1577     141.113    18.6424    4.31       7.106      5.124      2.5491     31.2699    457.001    30.1689   
2896.4001  0.1968004  256.9807   3.3198     26.36929   46.12484   35.37656   16.13599   4.755499   139.3513   17.97723   3.903      6.648      5.147      2.5856     29.97893   458.002    30.489    
2896.6001  0.1976004  260.6724   3.4661     28.85252   48.68084   32.41201   15.3367    4.755781   139.9385   15.78186   4.093      7.075      5.593      2.4644     28.48404   460.0018   26.3637   
2896.8     0.1984     252.6989   4.0696     24.9736    44.7277    29.936     15.5365    5.3533     147.261    13.8314    3.876      6.663      5.42       2.4273     27.1889    461.501    26.8488   
2897       0.1984     246.2409   3.9349     24.5763    42.9537    26.7817    15.3366    7.3323     146.38     15.3493    4.148      6.766      5.019      2.3569     26.5909    462.501    28.3029   
2897.2     0.1984     257.6624   3.7005     24.1789    42.7501    24.9       14.7367    9.8061     149.31     15.4984    4.038      6.814      5.02       2.3984     26.4913    463.501    28.8483   
2897.4001  0.1984004  260.9564   4.3086     24.0789    39.08525   23.81629   14.42541   11.09483   149.8972   13.07327   4.409      7.336      4.929      2.3122     25.59354   465.0013   28.2684   
2897.6001  0.1991996  264.1882   4.2158     23.8788    38.00924   22.43595   14.0478    11.99144   156.3385   14.71167   4.496      7.158      4.758      2.3501     24.29825   465.5008   29.9292   
2897.8     0.1984     263.6852   4.6847     23.2842    37.1082    21.9353    13.8479    12.4859    155.458    13.5062    4.685      7.32       4.849      2.2941     23.8002    465.001    28.5369   
2898       0.1976     256.936    4.7752     23.0843    36.1194    21.7457    13.5368    13.0837    155.458    11.8799    3.86       6.565      4.555      2.3009     23.8998    464.501    30.6799   
2898.2     0.2008     249.0005   4.6823     21.1926    33.5602    20.8523    13.9368    13.0837    159.844    12.5033    4.322      6.996      4.253      2.3483     23.9995    466.001    33.8263   
2898.4001  0.2072012  261.8603   4.2994     20.29825   32.4553    20.25645   13.6478    13.77464   160.4376   13.49264   4.555      7.225      4.433      2.3186     23.89985   466.5015   31.8713   
2898.6001  0.2096     271.2875   4.6847     20.99544   33.06559   19.95855   13.44829   14.46519   159.5581   13.57388   4.531      7.486      4.529      2.3484     23.99974   467.5025   31.5713   
2898.8     0.2096     261.5844   4.8703     21.6899    32.6586    19.4714    14.0479    15.0627    161.606    13.3436    5.084      7.589      4.588      2.3403     24.4979    468.502    31.0072   
2899       0.2104     262.606    4.5292     21.4924    31.5535    18.9706    13.9368    14.3722    161.606    14.6581    4.847      7.257      4.699      2.4515     25.3949    469.498    31.7938   
