~Version
 VERS              .         3.0                           : CWLS LOG ASCII STANDARD - VERSION 3.0
 WRAP              .         NO                            : ONE LINE PER DEPTH STEP
 DLM               .         SPACE                         : DELIMITING CHARACTER(SPACE TAB OR COMMA)
~Well Information
#_______________________________________________________________________________
#
#PARAMETER_NAME    .UNIT     VALUE                         : DESCRIPTION
#_______________________________________________________________________________
STRT               .M        2850                          : First reference value
STOP               .M        2930                          : Last reference value
STEP               .M        0.2                           : Step increment
NULL               .         -9999                         : Missing value
COMP               .                                       : Company
WELL               .         59P                           : Well name
FLD                .         0317                          : Field
LOC                .         76.931794, 0.464915           : Location
SRVC               .                                       : Service Company
CTRY               .                                       : Country
DATE               .         2002-09-26                    : Service Date
X                  .m        536919.31                     : X or East-West coordinate
Y                  .m        6438948.67                    : Y or North South coordinate
GDAT               .                                       : Geodetic Datum
HZCS               .                                       : Horizontal Co-ordinate System
EREF               .m        120.14                        : 120.14
PROV               .         1                             : Province
UWI                .         03170005900                   : Unique well id
~Parameter Information Block
#_______________________________________________________________________________
#
#PARAMETER_NAME    .UNIT     VALUE                         : DESCRIPTION
#_______________________________________________________________________________
SET                .         59P                           : 
TLFamily_DS        .         Caliper                       : 
TLFamily_DT        .         Compressional Slowness        : 
TLFamily_GR        .         Gamma Ray                     : 
TLFamily_GZ1       .         Extra Shallow Resistivity     : 
TLFamily_GZ2       .         Shallow Resistivity           : 
TLFamily_GZ3       .         Medium Resistivity            : 
TLFamily_GZ3R      .         Medium Resistivity            : 
TLFamily_GZ4       .         Deep Resistivity              : 
TLFamily_ILD       .         Conductivity                  : 
TLFamily_LLD       .         Lateral Log Resistivity       : 
TLFamily_MD        .         Measured Depth                : 
TLFamily_MGZ       .         Micro Gradient Resistivity    : 
TLFamily_MPZ       .         Micro Potential Resistivity   : 
TLFamily_NKTD      .         Neutron Far                   : 
TLFamily_NKTS      .         Neutron Near                  : 
TLFamily_PZ        .         Potential Resistivity         : 
TLFamily_SP        .         Spontaneous Potential         : 
TLFamily_W         .         Neutron Porosity              : 
~Curve Information
#_______________________________________________________________________________
#
#LOGNAME           .UNIT     LOG_ID                        : DESCRIPTION
#_______________________________________________________________________________
MD                 .M                                      :  {F}
DS                 .m                                      :  {F}
DT                 .ms/m                                   :  {F}
GR                 .gapi                                   :  {F}
GZ1                .ohmm                                   :  {F}
GZ2                .ohmm                                   :  {F}
GZ3                .ohmm                                   :  {F}
GZ3R               .ohmm                                   :  {F}
GZ4                .ohmm                                   :  {F}
ILD                .msim/m                                 :  {F}
LLD                .ohmm                                   :  {F}
MGZ                .ohmm                                   :  {F}
MPZ                .ohmm                                   :  {F}
NKTD               .ue                                     :  {F}
NKTS               .ue                                     :  {F}
PZ                 .ohmm                                   :  {F}
SP                 .mv                                     :  {F}
W                  .%                                      :  {F}
~Ascii
# ...
2858.2     0.2216     293.4383   13.7626    15.0249    17.6231    10.3742    36.1333    4.4566     83.4258    12.0426    7.103      6.853      2.981      1.954      22.3106    556.999    40.7421   
2858.4001  0.2232004  304.5913   12.2701    15.52259   19.80473   11.66045   39.13489   4.755735   75.8176    14.92938   8.075      7.348      3.137      1.987      24.19976   556.9993   39.2507   
2858.6001  0.2240008  297.4383   13.9575    16.3191    20.67866   11.95922   43.31112   5.250653   66.44581   15.29465   11.52      6.91       3.278      2.0064     26.19298   557.4988   37.8369   
2858.8     0.2256     273.7633   14.7955    21.0951    24.7483    14.4219    45.5985    6.2397     63.51691   14.4142    13.377     12.97      3.438      1.9868     27.787     556.999    35.5474   
2859       0.2264     272.8516   15.7332    19.4032    25.0391    16.6962    54.66381   7.930099   61.7646    12.8557    7.984      5.999      3.058      1.9076     30.5777    556.999    38.6192   
2859.2     0.2256     273.7396   17.5135    17.8113    28.2963    19.4714    69.99469   10.3111    62.0517    18.6153    8.889      5.336      2.66       1.8265     34.1603    556.499    42.822    
2859.4001  0.224      307.7971   19.2961    20.19872   33.85224   22.7349    80.72859   12.58979   55.31693   24.97311   13.926     10.689     2.553      1.7827     40.43653   555.9983   43.6043   
2859.6001  0.224      317.0751   20.8768    21.6923    36.41261   24.60283   85.21513   14.26998   50.05076   28.86115   15.08      9.134      2.432      1.7354     45.81857   554.498    44.6148   
2859.8     0.224      320.0273   23.0331    27.0653    41.5577    25.8882    86.3033    16.1553    45.95429   29.7687    14.68      6.609      2.432      1.7031     50.7941    552.499    43.7263   
2860       0.2224     326.7505   22.8451    28.4573    42.9537    27.6617    89.79161   17.7426    45.6573    27.6546    15.202     9.874      2.445      1.6774     52.6879    553.999    42.7847   
2860.2     0.2216     322.6478   22.9588    30.7464    51.06761   29.7464    96.45729   19.4227    44.1921    29.6468    15.565     11.547     2.355      1.6774     53.7842    553.999    44.5345   
2860.4001  0.2199992  333.347    24.5697    31.94085   61.45182   32.02203   106.6143   21.40228   43.02316   29.02456   17.067     11.606     2.303      1.6774     55.0801    553.999    45.6125   
2860.6001  0.2184     329.6317   24.2679    31.84182   65.40901   34.78387   113.5002   22.59749   41.55826   31.43803   12.563     8.254      2.265      1.6903     55.27365   553.999    46.8125   
2860.8     0.2184     334.9296   29.509     33.7302    73.7226    37.8419    115.988    22.989     40.6875    36.4635    14.684     14.529     2.174      1.6903     54.9803    553.999    48.8981   
2861       0.2184     330.016    30.8274    37.4113    79.45179   39.5206    112.099    20.9069    39.8064    31.9371    13.045     13.074     2.084      1.6966     55.4731    554.499    51.334    
2861.2     0.2192     324.6262   30.0754    35.0247    74.42059   38.3428    110.811    17.5365    42.1428    24.104     13.001     10.922     2.163      1.6404     55.6724    554.499    47.6062   
2861.4001  0.22       322.9995   30.723     30.44543   65.69489   38.34451   114.391    14.86628   42.43964   26.35525   11.955     10.25      2.232      1.6068     56.47126   553.9985   45.0383   
2861.6001  0.2200004  325.6989   33.0371    28.35759   63.71841   41.90472   120.5681   13.6711    42.14082   29.86395   12.994     9.1        2.278      1.7034     59.46164   552.9983   46.9086   
2861.8     0.2208     322.1451   32.3013    28.9546    63.92189   45.0574    126.919    13.2796    38.3412    30.5819    14.143     12.314     2.496      1.7448     63.048     551.499    43.6388   
2862       0.2208     328.0359   31.4077    28.4573    60.66471   47.1287    134.385    13.2796    34.8267    31.1104    15.249     11.373     2.334      1.6672     68.32499   552.999    44.6751   
2862.2     0.22       323.679    34.1536    27.5626    61.1591    50.3912    140.473    13.8774    29.847     42.7788    14.791     10.445     2.49       1.8194     73.901     552.999    45.7546   
2862.4001  0.222402   325.9834   34.5714    30.64732   65.03094   56.32501   143.4503   15.36249   28.97519   50.54817   15.056     14.054     2.588      1.8108     80.67478   552.999    43.689    
2862.6001  0.2263996  310.2387   34.0468    32.53828   73.43793   65.90959   143.8487   17.24874   27.79755   59.38125   16.225     14.395     2.57       1.8887     84.36225   552.9988   46.0517   
2862.8     0.2256     294.4149   32.8677    38.1086    86.78051   75.3003    141.161    19.031     27.5106    61.72461   17.877     16.992     2.783      1.823      87.3509    552.499    40.6991   
2863       0.2248     300.5937   38.4801    39.403     90.2412    81.22969   133.896    20.3194    26.9265    50.4628    19.654     14.022     2.618      1.6969     89.23911   552.499    40.2498   
2863.2     0.2248     315.2192   36.99      39.20309   94.3127    85.27749   128.519    21.9995    29.2629    54.3658    16.032     8.914      2.271      1.7239     88.84041   551.999    47.6579   
2863.4001  0.2231984  325.2333   37.8511    42.58695   107.1696   89.13783   124.5401   25.77396   29.2629    61.81501   15.672     16.079     2.581      1.7744     89.03854   551.4988   42.8723   
2863.6001  0.2199992  314.3669   38.313     42.88429   112.6066   93.48388   120.7653   30.03057   29.26245   53.45518   12.567     14.189     2.576      1.8435     86.55187   550.9988   44.7526   
2863.8     0.2184     309.6658   34.0863    43.0841    115.688    99.01809   121.365    33.791     28.3818    48.308     12.717     13.192     2.986      1.9669     83.36409   550.499    40.9445   
2864       0.2168     298.8847   34.5667    43.5814    118.364    104.352    122.853    37.4604    28.9758    49.3516    10.821     12.761     2.745      1.8594     79.8757    551.499    42.2019   
2864.2     0.2152     313.2668   38.3386    41.6921    110.744    107.208    129.719    39.2435    30.7281    35.5419    9.667      12.219     2.679      1.7122     78.0871    551.499    39.6526   
2864.4001  0.2152016  306.2886   41.7483    39.50129   105.6798   108.4949   146.265    41.43099   31.31319   31.56946   9.841      11.567     2.23       1.6582     75.89454   551.9993   46.6273   
2864.6001  0.2184016  328.9075   37.7629    36.21769   97.68433   110.4736   179.5065   46.48365   33.36121   28.28022   11.627     11.721     2.206      1.748      76.19463   552.499    49.8871   
2864.8     0.2216     328.6455   41.2028    33.133     93.8183    115.913    218.127    56.29169   32.7774    33.089     14.7       9.942      2.232      1.6261     78.6851    552.499    45.6196   
2865       0.2224     328.2917   41.6856    33.133     96.29029   124.699    254.3661   64.8158    29.847     38.1575    11.113     10.48      2.176      1.6993     82.66639   552.499    49.1177   
2865.2     0.2224     326.1672   46.1004    34.3275    90.7356    125.795    265.6979   67.19671   26.9265    40.4072    18.43      14.387     2.183      1.6868     90.03648   552.499    48.5622   
2865.4001  0.2224     346.0007   44.6775    34.22824   84.91889   118.2801   262.1176   63.82585   23.69835   46.03123   13.764     16.545     2.303      1.8383     97.01051   551.9983   50.2703   
2865.6001  0.2223996  324.978    43.9185    35.52224   84.30973   114.6256   257.1432   62.9297    22.2333    45.8692    18.015     10.733     2.432      1.7229     102.5918   550.4983   44.2804   
2865.8     0.2216     300.9429   43.2408    36.0194    86.78051   111.852    257.743    63.3315    21.0657    46.8851    16.652     9.045      2.334      1.8171     108.265    548.999    48.9584   
2866       0.2208     327.2379   38.6589    36.41669   92.33521   108.887    263.52     64.7127    20.7687    48.1996    20.034     16.21      2.665      1.8323     113.841    549.999    42.8766   
2866.2     0.22       340.7937   35.3188    38.0086    99.16951   107.506    266.6089   66.3       19.0164    53.4714    20.452     17.47      2.614      1.8229     120.015    550.999    43.5426   
