~Version
 VERS              .         3.0                           : CWLS LOG ASCII STANDARD - VERSION 3.0
 WRAP              .         NO                            : ONE LINE PER DEPTH STEP
 DLM               .         SPACE                         : DELIMITING CHARACTER(SPACE TAB OR COMMA)
~Well Information
#_______________________________________________________________________________
#
#PARAMETER_NAME    .UNIT     VALUE                         : DESCRIPTION
#_______________________________________________________________________________
STRT               .M        2850                          : First reference value
STOP               .M        2930                          : Last reference value
STEP               .M        0.2                           : Step increment
NULL               .         -9999                         : Missing value
COMP               .                                       : Company
WELL               .         59P                           : Well name
FLD                .         0317                          : Field
LOC                .         76.931794, 0.464915           : Location
SRVC               .                                       : Service Company
CTRY               .                                       : Country
DATE               .         2002-09-26                    : Service Date
X                  .m        536919.31                     : X or East-West coordinate
Y                  .m        6438948.67                    : Y or North South coordinate
GDAT               .                                       : Geodetic Datum
HZCS               .                                       : Horizontal Co-ordinate System
EREF               .m        120.14                        : 120.14
PROV               .         1                             : Province
UWI                .         03170005900                   : Unique well id
~Parameter Information Block
#_______________________________________________________________________________
#
#PARAMETER_NAME    .UNIT     VALUE                         : DESCRIPTION
#_______________________________________________________________________________
SET                .         59P                           : 
TLFamily_DS        .         Caliper                       : 
TLFamily_DT        .         Compressional Slowness        : 
TLFamily_GR        .         Gamma Ray                     : 
TLFamily_GZ1       .         Extra Shallow Resistivity     : 
TLFamily_GZ2       .         Shallow Resistivity           : 
TLFamily_GZ3       .         Medium Resistivity            : 
TLFamily_GZ3R      .         Medium Resistivity            : 
TLFamily_GZ4       .         Deep Resistivity              : 
TLFamily_ILD       .         Conductivity                  : 
TLFamily_LLD       .         Lateral Log Resistivity       : 
TLFamily_MD        .         Measured Depth                : 
TLFamily_MGZ       .         Micro Gradient Resistivity    : 
TLFamily_MPZ       .         Micro Potential Resistivity   : 
TLFamily_NKTD      .         Neutron Far                   : 
TLFamily_NKTS      .         Neutron Near                  : 
TLFamily_PZ        .         Potential Resistivity         : 
TLFamily_SP        .         Spontaneous Potential         : 
TLFamily_W         .         Neutron Porosity              : 
~Curve Information
#_______________________________________________________________________________
#
#LOGNAME           .UNIT     LOG_ID                        : DESCRIPTION
#_______________________________________________________________________________
MD                 .M                                      :  {F}
DS                 .m                                      :  {F}
DT                 .ms/m                                   :  {F}
GR                 .gapi                                   :  {F}
GZ1                .ohmm                                   :  {F}
GZ2                .ohmm                                   :  {F}
GZ3                .ohmm                                   :  {F}
GZ3R               .ohmm                                   :  {F}
GZ4                .ohmm                                   :  {F}
ILD                .msim/m                                 :  {F}
LLD                .ohmm                                   :  {F}
MGZ                .ohmm                                   :  {F}
MPZ                .ohmm                                   :  {F}
NKTD               .ue                                     :  {F}
NKTS               .ue                                     :  {F}
PZ                 .ohmm                                   :  {F}
SP                 .mv                                     :  {F}
W                  .%                                      :  {F}
~Ascii
# ...
2915.6001  0.2191996  247.9886   6.4557     9.752143   10.00441   5.826057   6.271586   6.043996   166.0017   6.608193   10.584     8.91       3.657      2.1841     8.561547   543.5013   36.8436   
2915.8     0.2184     246.0757   7.6255     10.2493    11.7776    6.8138     6.871201   6.2397     165.408    6.5946     9.023      7.055      3.96       2.0256     8.2627     542.001    31.1019   
2916       0.2184     251.9905   7.4909     11.1439    13.1736    6.9221     7.071199   6.2397     163.952    6.120299   10.066     7.751      3.72       1.9751     8.2627     538.001    32.4096   
2916.2     0.2184     252.7663   7.2124     9.4521     10.5853    6.516      6.1824     5.6522     166.586    6.0796     10.007     8.138      3.583      2.1369     7.9637     536.001    36.7904   
2916.4001  0.2184     252.5363   7.3029     10.74591   10.99118   6.231839   6.471199   5.249939   175.0732   5.916924   9.541      7.411      3.768      2.0392     8.362595   536.5012   33.09     
2916.6001  0.2184     264.0509   7.0267     9.452049   8.811582   6.516418   6.271764   4.755867   181.5149   5.768263   8.608      8.356      3.778      2.1651     8.760947   537.002    35.2302   
2916.8     0.2184     257.0206   6.8944     9.3521     9.3929     7.4095     7.271201   5.5492     181.218    6.540401   9.525      8.961      3.992      2.0389     8.462      539.001    31.0531   
2917       0.2208     248.1191   7.8576     11.5413    11.8649    8.3977     9.0486     6.0439     175.3671   6.8386     12.267     10.384     3.745      1.9675     8.462      540.501    32.0292   
2917.2     0.2224     264.651    7.1149     10.1493    10.2944    9.088101   10.1596    6.538701   170.1      6.703      9.47       7.581      3.751      2.0259     8.7611     541.501    33.0153   
2917.4001  0.2232     254.0613   6.4534     10.64675   11.19584   9.588642   11.0485    6.641699   171.8511   6.025847   10.876     7.798      3.481      1.9746     8.362641   546.0007   34.8383   
2917.6001  0.2232     258.9672   5.3369     10.94364   10.87584   8.898181   11.44778   6.641218   168.0455   6.987804   10.042     5.754      3.348      1.9553     8.860895   551.5008   35.9565   
2917.8     0.2232     263.0925   6.3419     10.2493    10.3817    8.0999     10.4484    5.745      157.507    7.4077     7.826      5.659      3.297      2.0966     9.259399   554.999    39.4201   
2918       0.2224     252.5115   8.3219     11.1439    10.0909    6.8138     9.448599   5.1575     154.29     7.1638     7.625      6.521      3.438      2.0381     9.259399   556.499    36.5436   
2918.2     0.22       246.2519   8.7814     10.8441    10.1781    6.516      7.760001   4.9513     154.577    6.0661     7.056      5.746      3.096      1.8838     7.863999   556.999    37.5885   
2918.4001  0.2175996  254.2061   7.9969     10.34551   10.498     6.028439   7.671242   4.9513     163.955    5.618703   5.713      5.26       2.816      1.8671     8.362195   557.4995   41.2287   
2918.6001  0.2168     258.7274   8.4263     8.060569   10.49828   5.527945   7.959753   4.951351   170.1008   5.239749   5.535      5.101      2.943      1.8793     7.963798   558.5002   39.6038   
2918.8     0.2168     253.9417   8.0828     9.0547     11.0797    5.8256     7.6711     5.0544     171.853    5.9848     6.281      6.137      2.911      1.955      8.163      559        41.8129   
2919       0.2176     250.1429   7.86       8.0601     10.0909    5.9339     7.871      5.3533     165.408    6.1609     6.483      5.865      3.239      2.0128     8.6614     559.5      38.4584   
2919.2     0.2184     253.0207   8.0712     8.9548     9.887299   6.123401   8.471      5.3533     158.092    6.7166     7.052      4.987      3.239      1.9805     8.3624     559.5      37.7909   
2919.4001  0.2192004  251.0424   8.8696     9.252298   9.799942   6.814129   8.670799   5.745051   156.9222   6.350568   6.89       5.564      3.196      1.9493     8.661548   560        37.6833   
2919.6001  0.2200004  251.2967   8.3358     9.451898   9.683996   7.504722   8.471372   5.848001   155.4584   6.093254   5.95       4.868      3.185      1.9172     8.959981   559.9995   37.1507   
2919.8     0.2208     255.0467   8.4147     9.0547     10.2944    8.3977     9.2486     5.6522     156.339    6.201601   6.767      4.579      3.121      1.9044     8.163      559        37.7048   
2920       0.2216     253.3329   8.3474     8.9548     9.887299   8.7903     9.2486     5.745      151.647    6.4591     5.879      4.785      3.051      1.8737     8.7611     557.999    37.9603   
2920.2     0.2224     255.7148   8.2406     9.552      11.0797    8.6008     9.9596     6.0439     149.31     6.0796     4.678      4.101      3.141      1.9545     8.462      557.999    38.5172   
2920.4001  0.2215996  254.5629   8.7814     8.95536    10.17805   8.7901     10.44869   6.147096   150.4782   6.309783   5.685      4.188      2.817      1.8797     8.561749   559.0002   41.5273   
2920.6001  0.2207992  257.7731   8.0456     10.14883   10.09095   8.397548   11.04846   6.342647   150.7735   5.890134   7.585      5.204      2.994      1.8854     8.661736   559.5005   39.0067   
2920.8     0.2192     252.7019   8.0456     9.252199   10.1781    8.0999     11.3594    6.0439     147.845    6.3778     7.802      4.983      3.053      1.8985     9.3591     560.5      38.4785   
2921       0.2184     258.3778   8.3451     8.0601     9.5965     7.910399   11.0483    6.0439     146.083    6.526899   5.333      4.524      3.121      1.9301     9.558399   560        38.256    
2921.2     0.2184     256.9402   7.8669     9.652      10.1781    7.8021     11.1594    6.2397     140.232    6.9334     7.554      5.73       3.109      1.9866     9.9571     560.5      39.6282   
2921.4001  0.2184     255.4648   8.8696     9.75219    9.684091   7.409404   11.15924   6.343128   132.3207   7.231842   7.206      5.845      2.797      1.8472     10.25644   561        41.0608   
2921.6001  0.2184     259.3365   8.0828     10.34718   10.49828   7.220191   10.8483    7.033497   129.6866   7.73304    7.763      6.529      3.111      1.8694     10.95385   560.9998   37.0833   
2921.8     0.2184     258.343    8.424      11.1439    11.0797    7.6125     10.6484    7.229199   127.055    7.8143     8.047      6.707      3.097      1.8902     11.0535    560.5      37.712    
2922       0.22       253.9872   7.7741     11.5413    12.1848    7.910399   10.3596    7.7343     125.59     7.9634     7.933      6.367      3.197      1.8601     12.0502    559.5      35.8129   
2922.2     0.2208     253.0153   7.9621     11.4413    13.0572    8.303      9.6486     7.3323     124.719    8.0311     7.471      5.963      3.051      1.9043     11.8508    560        38.6436   
2922.4001  0.2208004  259.4607   8.0433     11.9388    13.26124   8.898791   10.04855   7.930196   124.7175   7.976887   7.617      6.391      2.924      1.8599     11.55165   561.0005   39.433    
2922.6001  0.2216004  257.8337   7.2588     12.13855   14.16265   9.291347   10.1595    8.125948   121.7895   7.949739   8.13       6.375      3.007      1.8693     11.2528    561.9998   38.4684   
2922.8     0.2224     259.5156   7.5907     12.0386    14.6568    9.589      9.9596     8.022901   124.719    7.827799   8.012      6.165      2.948      1.8581     11.2528    561.5      39.0483   
2923       0.2232     265.1498   8.1454     12.4384    15.1512    9.9816     10.2485    7.930099   126.174    7.882101   6.763      5.378      2.949      1.8602     11.5518    561        39.0785   
2923.2     0.224      266.5243   7.7787     11.8411    14.4532    10.0764    9.2486     7.930099   126.471    7.882101   7.672      5.687      2.994      1.9365     11.5518    561.5      40.1493   
2923.4001  0.2239992  260.5317   7.5837     12.0385    14.54029   10.1713    8.759442   8.022854   127.9356   7.868313   8.142      6.177      3.109      1.8836     10.95385   562        37.4163   
2923.6001  0.2223988  258.7865   7.1218     11.841     14.33686   10.57735   8.070842   7.930196   127.0551   7.50262    8.375      5.88       2.871      1.8132     11.05345   562        39.1345   
