~Version
 VERS              .         3.0                           : CWLS LOG ASCII STANDARD - VERSION 3.0
 WRAP              .         NO                            : ONE LINE PER DEPTH STEP
 DLM               .         SPACE                         : DELIMITING CHARACTER(SPACE TAB OR COMMA)
~Well Information
#_______________________________________________________________________________
#
#PARAMETER_NAME    .UNIT     VALUE                         : DESCRIPTION
#_______________________________________________________________________________
STRT               .M        2850                          : First reference value
STOP               .M        2930                          : Last reference value
STEP               .M        0.2                           : Step increment
NULL               .         -9999                         : Missing value
COMP               .                                       : Company
WELL               .         59P                           : Well name
FLD                .         0317                          : Field
LOC                .         76.931794, 0.464915           : Location
SRVC               .                                       : Service Company
CTRY               .                                       : Country
DATE               .         2002-09-26                    : Service Date
X                  .m        536919.31                     : X or East-West coordinate
Y                  .m        6438948.67                    : Y or North South coordinate
GDAT               .                                       : Geodetic Datum
HZCS               .                                       : Horizontal Co-ordinate System
EREF               .m        120.14                        : 120.14
PROV               .         1                             : Province
UWI                .         03170005900                   : Unique well id
~Parameter Information Block
#_______________________________________________________________________________
#
#PARAMETER_NAME    .UNIT     VALUE                         : DESCRIPTION
#_______________________________________________________________________________
SET                .         59P                           : 
TLFamily_DS        .         Caliper                       : 
TLFamily_DT        .         Compressional Slowness        : 
TLFamily_GR        .         Gamma Ray                     : 
TLFamily_GZ1       .         Extra Shallow Resistivity     : 
TLFamily_GZ2       .         Shallow Resistivity           : 
TLFamily_GZ3       .         Medium Resistivity            : 
TLFamily_GZ3R      .         Medium Resistivity            : 
TLFamily_GZ4       .         Deep Resistivity              : 
TLFamily_ILD       .         Conductivity                  : 
TLFamily_LLD       .         Lateral Log Resistivity       : 
TLFamily_MD        .         Measured Depth                : 
TLFamily_MGZ       .         Micro Gradient Resistivity    : 
TLFamily_MPZ       .         Micro Potential Resistivity   : 
TLFamily_NKTD      .         Neutron Far                   : 
TLFamily_NKTS      .         Neutron Near                  : 
TLFamily_PZ        .         Potential Resistivity         : 
TLFamily_SP        .         Spontaneous Potential         : 
TLFamily_W         .         Neutron Porosity              : 
~Curve Information
#_______________________________________________________________________________
#
#LOGNAME           .UNIT     LOG_ID                        : DESCRIPTION
#_______________________________________________________________________________
MD                 .M                                      :  {F}
DS                 .m                                      :  {F}
DT                 .ms/m                                   :  {F}
GR                 .gapi                                   :  {F}
GZ1                .ohmm                                   :  {F}
GZ2                .ohmm                                   :  {F}
GZ3                .ohmm                                   :  {F}
GZ3R               .ohmm                                   :  {F}
GZ4                .ohmm                                   :  {F}
ILD                .msim/m                                 :  {F}
LLD                .ohmm                                   :  {F}
MGZ                .ohmm                                   :  {F}
MPZ                .ohmm                                   :  {F}
NKTD               .ue                                     :  {F}
NKTS               .ue                                     :  {F}
PZ                 .ohmm                                   :  {F}
SP                 .mv                                     :  {F}
W                  .%                                      :  {F}
~Ascii
# ...
2874.6001  0.2232004  341.7212   50.5685    45.76984   143.7789   225.3826   298.3562   170.6539   11.7003    40.37669   22.609     18.108     2.217      1.6736     139.8413   541.0007   47.3938   
2874.8     0.224      335.2596   51.0212    44.27871   139.623    209.0919   292.8711   156.983    11.7003    34.0919    23.419     16.011     2.373      1.7841     146.61     540.501    47.1699   
2875       0.2248     326.1731   47.6207    36.3168    114.787    192.982    303.736    148.263    11.7003    32.7909    20.365     12.307     2.458      1.7387     153.482    540.001    44.2072   
2875.2     0.224      319.0632   47.7948    37.014     115.892    189.327    297.8699   147.171    11.7003    58.6212    29.183     16.009     2.365      1.7778     163.244    539.001    47.1799   
2875.4001  0.2231992  318.2018   47.1147    39.80302   124.5072   202.5762   263.8938   157.2897   10.52158   94.14907   21.906     18.512     2.832      1.961      171.5142   538.0005   43.2096   
2875.6001  0.2215992  313.8126   37.3428    45.37451   139.9466   221.9492   216.398    173.3499   9.353849   111.006    19.267     24.944     2.703      1.8905     178.085    537        43.6589   
2875.8     0.22       302.7907   31.7396    48.0597    147.155    243.382    183.177    191.976    9.057001   76.1306    15.735     20.453     2.837      1.9412     180.077    535.001    42.6541   
2876       0.2176     295.0922   31.0015    53.6325    165.273    268.183    154.204    215.363    10.5222    124.959    14.783     20.473     2.784      1.9279     176.988    534.501    43.2182   
2876.2     0.216      295.7197   33.4039    60.3975    193.2791   294.757    135.896    241.822    11.7003    111.041    16         19.238     2.637      1.8791     172.408    535.501    44.5546   
2876.4001  0.2144     305.3022   37.0921    61.59244   211.2847   318.7838   120.8479   263.631    11.70247   85.78128   13.203     16.72      2.635      1.9088     163.6378   536.0012   45.344    
2876.6001  0.2143996  308.403    37.359     62.48867   218.4925   340.7249   111.0084   282.0676   16.96739   64.97765   12.634     16.51      2.949      2.0001     153.577    536.5012   42.255    
2876.8     0.2136     302.9388   36.5884    66.5676    217.5051   356.814    105.922    295.44     17.5512    43.497     12.385     16.166     3.219      2.0326     143.919    537.001    39.1259   
2877       0.2144     312.8491   31.1872    58.60571   220.878    374.805    100.745    310.21     16.6701    105.85     12.733     16.998     3.805      2.2552     130.674    538.501    36.5364   
2877.2     0.216      291.0184   24.5186    64.0786    239.782    405.3321   88.30299   324.775    20.7687    127.249    17.047     21.009     4.105      2.3478     118.426    540.001    35.157    
2877.4001  0.2184008  263.2699   19.18      67.16385   240.1837   429.3423   69.87569   330.2193   21.0672    65.94234   20.847     18.491     4.604      2.1932     102.6819   541.5015   28.755    
2877.6001  0.2200004  267.4427   15.3595    65.2726    229.9685   418.3604   55.74849   314.948    24.28706   47.88344   24.324     16.822     3.933      2.0961     89.43251   542.5027   32.5402   
2877.8     0.2208     269.9213   20.7213    64.2785    206.337    377.472    48.287     288.2041   33.3615    22.5319    18.959     11.215     3.397      1.8953     78.3861    544.002    34.2096   
2878       0.22       275.3491   25.0014    48.15969   168.327    307.6051   37.5331    240.729    37.173     32.696     13.875     9.724      2.797      1.8563     73.70161   545.498    41.2747   
2878.2     0.22       301.1351   25.4123    39.70041   138.459    258.098    28.5789    209.014    36.975     26.2452    10.22      7.942      2.821      1.8719     73.4026    545.498    41.2704   
2878.4001  0.2199992  317.8653   21.529     34.22881   113.0984   216.992    24.29008   185.0277   45.07569   44.81621   19.465     12.378     3.46       2.121      72.90484   546.498    37.8957   
2878.6001  0.2183992  284.7648   19.0686    36.71812   109.9565   205.1337   23.09148   182.3572   50.34329   55.03371   24.296     13.837     3.685      2.1236     73.99989   546.498    35.4369   
2878.8     0.2168     247.8173   19.5886    39.9003    105.102    194.864    24.2907    178.886    57.369     38.5641    22.368     14.328     3.386      1.9547     72.40591   546.498    35.4957   
2879       0.216      270.343    16.9518    41.0949    103.328    180.433    24.0908    172.248    66.4473    45.0149    22.321     16.898     3.176      1.9205     69.02269   545.998    37.3345   
2879.2     0.2152     291.8776   17.8756    42.0895    107.458    176.575    23.2909    171.155    75.82259   49.9614    17.276     15.913     2.67       1.7529     64.1389    546.498    40.7952   
2879.4001  0.2135996  293.2954   17.8129    43.88194   114.7012   171.5358   20.9114    172.0518   84.30987   49.20502   17.418     16.637     3.06       2.1224     58.75589   546.498    43.2799   
2879.6001  0.2128     291.4084   10.5641    45.17611   119.1551   165.2135   17.11217   171.5548   90.4586    54.52431   14.542     16.332     4.029      2.5161     47.39554   546.4977   38.6708   
2879.8     0.2128     259.5826   5.3671     51.1435    132.003    158.299    13.6479    167.29     98.36491   46.7496    14.866     16.952     4.9        2.5212     31.2699    545.998    31.3101   
2880       0.212      210.3236   6.9478     54.22741   136.86     138.142    10.6484    143.213    109.492    20.1332    13.638     12.685     4.32       2.0377     19.6196    544.998    28.445    
2880.2     0.212      188.1234   12.4442    41.0949    99.25668   103.255    7.6711     100.2      128.817    9.0746     8.395      8.031      3.442      1.7646     14.0436    546.498    31.1823   
2880.4001  0.2120004  224.147    18.0822    22.4789    49.2754    60.45691   6.471677   54.18634   158.1073   5.154343   4.966      5.121      2.885      1.7397     12.84719   543.9998   37.2139   
2880.6001  0.2127996  254.5362   21.3758    10.83988   23.54765   31.41866   7.274074   22.98915   191.7701   1.201687   3.745      4.053      3.002      1.9748     12.24998   539.4967   40.8943   
2880.8     0.212      249.8098   30.4676    4.9738     11.6904    20.8523    16.0253    23.2879    210.799    4.4534     4.915      4.247      3.582      2.1485     13.2462    531        37.0216   
2881       0.212      234.111    20.5449    4.279      13.668     23.817     31.1563    34.0899    199.375    8.2615     4.259      5.4        5.47       2.5892     16.0314    522        28.5598   
2881.2     0.2112     233.6507   8.9045     6.1684     18.3211    33.4016    36.9332    44.0055    163.952    35.5962    11.943     15.189     7.196      2.8703     27.2886    510.499    23.5761   
2881.4001  0.208798   223.1557   5.0259     11.54552   20.38594   37.3543    32.75179   44.89037   134.665    62.26913   13.005     15.77      7.737      2.6877     42.828     499.496    20.1268   
2881.6001  0.2047988  191.1804   4.7729     23.98371   20.47437   36.96093   25.17642   41.9211    128.823    43.48104   6.601      9.7        7.215      2.6214     46.81209   489.4965   21.1948   
2881.8     0.2024     206.0674   4.2553     35.522     22.9452    34.8772    19.7137    37.5634    141.4      38.8351    4.867      7.925      6.99       2.7505     45.2182    482.499    23.2129   
2882       0.2024     223.9019   4.4015     41.6921    34.6362    31.5199    15.8254    31.5131    158.092    27.4649    4.448      7.17       6.165      2.4318     39.836     480.499    23.2775   
2882.2     0.2024     210.6409   4.868      38.40841   60.66471   25.7935    12.537     24.9783    173.021    17.8429    4.429      7.383      5.233      2.3072     34.25999   481.499    26.3794   
2882.4001  0.2024     240.9893   5.2162     33.6272    70.34595   19.56336   10.44776   18.82236   186.2022   15.89091   4.433      7.134      4.695      2.2977     29.4796    480.9992   29.6235   
2882.6001  0.2024     257.0706   5.504      27.95892   64.32533   14.6234    9.248349   14.37059   194.6944   14.94221   4.176      6.766      4.406      2.3527     26.09151   481.499    32.6019   
