~Version
 VERS              .         3.0                           : CWLS LOG ASCII STANDARD - VERSION 3.0
 WRAP              .         NO                            : ONE LINE PER DEPTH STEP
 DLM               .         SPACE                         : DELIMITING CHARACTER(SPACE TAB OR COMMA)
~Well Information
#_______________________________________________________________________________
#
#PARAMETER_NAME    .UNIT     VALUE                         : DESCRIPTION
#_______________________________________________________________________________
STRT               .M        2850                          : First reference value
STOP               .M        2930                          : Last reference value
STEP               .M        0.2                           : Step increment
NULL               .         -9999                         : Missing value
COMP               .                                       : Company
WELL               .         59P                           : Well name
FLD                .         0317                          : Field
LOC                .         76.931794, 0.464915           : Location
SRVC               .                                       : Service Company
CTRY               .                                       : Country
DATE               .         2002-09-26                    : Service Date
X                  .m        536919.31                     : X or East-West coordinate
Y                  .m        6438948.67                    : Y or North South coordinate
GDAT               .                                       : Geodetic Datum
HZCS               .                                       : Horizontal Co-ordinate System
EREF               .m        120.14                        : 120.14
PROV               .         1                             : Province
UWI                .         03170005900                   : Unique well id
~Parameter Information Block
#_______________________________________________________________________________
#
#PARAMETER_NAME    .UNIT     VALUE                         : DESCRIPTION
#_______________________________________________________________________________
SET                .         59P                           : 
TLFamily_DS        .         Caliper                       : 
TLFamily_DT        .         Compressional Slowness        : 
TLFamily_GR        .         Gamma Ray                     : 
TLFamily_GZ1       .         Extra Shallow Resistivity     : 
TLFamily_GZ2       .         Shallow Resistivity           : 
TLFamily_GZ3       .         Medium Resistivity            : 
TLFamily_GZ3R      .         Medium Resistivity            : 
TLFamily_GZ4       .         Deep Resistivity              : 
TLFamily_ILD       .         Conductivity                  : 
TLFamily_LLD       .         Lateral Log Resistivity       : 
TLFamily_MD        .         Measured Depth                : 
TLFamily_MGZ       .         Micro Gradient Resistivity    : 
TLFamily_MPZ       .         Micro Potential Resistivity   : 
TLFamily_NKTD      .         Neutron Far                   : 
TLFamily_NKTS      .         Neutron Near                  : 
TLFamily_PZ        .         Potential Resistivity         : 
TLFamily_SP        .         Spontaneous Potential         : 
TLFamily_W         .         Neutron Porosity              : 
~Curve Information
#_______________________________________________________________________________
#
#LOGNAME           .UNIT     LOG_ID                        : DESCRIPTION
#_______________________________________________________________________________
MD                 .M                                      :  {F}
DS                 .m                                      :  {F}
DT                 .ms/m                                   :  {F}
GR                 .gapi                                   :  {F}
GZ1                .ohmm                                   :  {F}
GZ2                .ohmm                                   :  {F}
GZ3                .ohmm                                   :  {F}
GZ3R               .ohmm                                   :  {F}
GZ4                .ohmm                                   :  {F}
ILD                .msim/m                                 :  {F}
LLD                .ohmm                                   :  {F}
MGZ                .ohmm                                   :  {F}
MPZ                .ohmm                                   :  {F}
NKTD               .ue                                     :  {F}
NKTS               .ue                                     :  {F}
PZ                 .ohmm                                   :  {F}
SP                 .mv                                     :  {F}
W                  .%                                      :  {F}
~Ascii
# ...
2907.4001  0.2175992  241.5658   6.1655     11.34339   13.55065   10.1709    7.360099   7.630888   210.7993   5.74088    5.997      7.759      3.695      2.0185     7.764985   523.9963   33.4359   
2907.6001  0.2159968  257.9179   7.0267     10.54601   11.77657   9.777856   7.559956   7.032632   211.3843   5.904354   7.324      7.34       3.355      1.8935     9.259963   516.4958   34.6416   
2907.8     0.2096     258.8874   6.8363     9.252199   9.887299   8.3977     7.4711     5.6522     214.0169   7.882101   5.005      6.458      3.531      2.1963     10.4554    509.999    38.4971   
2908       0.204      243.1558   5.9172     12.0386    9.6837     7.3147     6.4713     4.4566     214.304    8.6816     3.556      6.003      4.124      2.2646     10.7545    509.499    33.6211   
2908.2     0.2072     257.4039   5.9729     14.3277    10.0036    6.123401   6.1824     3.9618     214.8981   7.1774     3.97       6.58       4.316      2.2782     10.3558    511.999    32.1957   
2908.4001  0.2128004  260.7532   6.0866     12.23869   10.0045    5.5278     6.760528   4.157979   215.7662   6.784901   6.499      7.929      4.348      2.209      10.15614   512.5      30.868    
2908.6001  0.2136024  239.5051   6.5578     12.63674   11.98264   5.528083   7.671734   4.755735   210.1976   8.098125   5.294      7.624      4.452      2.2464     9.658437   514.501    30.6426   
2908.8     0.2184     244.0527   7.5327     14.4277    15.2384    6.123401   9.0486     5.250199   195.86     6.6895     7.451      8.921      4.012      2.1545     10.3558    518.499    32.8101   
2909       0.2232     255.354    7.2054     12.2385    12.272     6.123401   9.6486     5.1575     185.029    6.432      9.264      6.747      3.837      2.0859     9.7577     518.999    33.2479   
2909.2     0.2184     243.9167   5.9543     11.7412    11.7776    5.5278     9.9596     4.8586     180.347    9.7794     7.795      9.562      3.957      2.3229     12.4488    517.499    36.1603   
2909.4001  0.2104     238.7944   5.6178     13.03534   12.76736   5.5278     8.470517   4.3638     178.8806   10.80822   5.195      8.012      4.568      2.4125     12.44849   519.5008   32.2115   
2909.6001  0.2104012  240.484    5.2441     18.10764   14.83002   5.527752   7.559413   4.363418   176.248    8.84336    6.989      9.475      4.707      2.2927     11.85022   523.0018   29.4684   
2909.8     0.2128     234.6458   5.3624     15.9196    12.4756    5.433      6.4713     3.6629     176.248    7.1502     7.103      9.024      4.685      2.1963     10.7545    526.5      28.2527   
2910       0.2136     236.5806   5.5063     14.0303    13.9588    5.5278     6.2713     4.0649     177.713    8.0989     7.972      9.048      4.329      2.2389     9.3591     528.5      31.4809   
2910.2     0.216      235.8532   5.9729     13.7304    15.1512    5.3382     6.3824     3.8691     178.297    6.703      6.815      8.641      4.31       2.2899     10.5551    530.5      32.4311   
2910.4001  0.2216008  240.0663   6.2886     12.43804   14.04555   5.432952   5.982694   3.766096   175.664    6.621497   8.68       9.617      4.248      2.1712     8.661248   532.0012   31.0775   
2910.6001  0.2232008  243.4905   6.8387     11.74063   13.17234   5.338389   6.3824     3.961944   175.6648   6.22874    9.687      10.365     4.646      2.2547     8.36235    532.5012   29.3507   
2910.8     0.2248     241.3226   6.1934     10.6466    10.8761    5.7308     6.3824     4.2607     177.119    6.309999   9.762      9.206      4.29       2.2078     8.2627     533.001    31.3115   
2911       0.2256     239.355    6.639      10.7466    10.7888    6.123401   7.071199   4.0649     176.832    6.1067     11.899     10.021     3.794      2.1745     8.7611     532.001    35.2244   
2911.2     0.2264     242.0508   5.8963     10.0494    10.1781    6.6243     7.56       3.766      177.119    6.5946     12.346     9.155      3.904      2.2644     9.1597     530        35.6881   
2911.4001  0.2263992  232.7627   6.1609     10.05035   10.29496   7.112121   7.671337   4.755822   181.2176   7.854904   12.851     9.898      4.217      2.2485     9.657948   529.0007   32.556    
2911.6001  0.2247976  245.7145   5.504      12.13917   11.48704   8.005247   8.159753   5.446338   180.3447   7.664544   8.099      9.068      4.247      2.2803     9.35879    530.5012   32.8029   
2911.8     0.22       238.6913   5.6386     13.3331    11.9812    8.303      7.871      5.9408     175.664    6.4591     6.716      8.486      4.064      2.0848     8.7611     533.001    31.2024   
2912       0.2184     240.1243   6.5578     12.9357    11.4868    7.7073     8.071      6.147      171.853    5.5511     7.301      7.945      3.822      2.032      8.462      533.001    32.4541   
2912.2     0.2192     240.1895   5.9752     10.2493    10.1781    6.9221     7.6711     5.250199   175.3671   6.540401   7.85       7.636      3.741      2.0772     8.9604     531.501    34.0302   
2912.4001  0.2175988  249.5125   6.5184     10.05018   10.091     6.420835   6.670484   4.755295   175.664    7.339508   7.364      9.087      4.248      2.293      8.960036   533.0017   32.9938   
2912.6001  0.2152004  261.7689   6.2886     11.74063   10.2936    5.730648   5.382339   4.363846   175.6634   6.418261   7.392      9.147      4.359      2.2934     8.262751   534.502    32.0852   
2912.8     0.216      262.2161   6.9338     10.6466    8.8113     5.433      5.0715     4.4566     174.486    6.1474     9.015      9.352      4.329      2.0972     8.3624     536.501    29.3005   
2913       0.2184     244.5231   5.9984     10.1493    8.898499   5.3382     4.9826     5.0544     171.268    5.9306     10.137     8.862      4.183      2.1959     8.6614     539.001    32.0062   
2913.2     0.2216     235.1776   7.1149     9.552      9.6837     5.636099   5.5825     6.3428     168.922    5.781499   11.062     7.601      4.078      2.1307     7.7643     540.501    31.8397   
2913.4001  0.2224     244.3274   6.3791     10.44634   11.57405   7.504498   7.160428   8.425047   166.5838   5.930746   10.319     7.197      4.07       2.1398     7.963599   542.001    32.0579   
2913.6001  0.2224008  250.821    7.0174     9.751849   11.48628   7.910817   8.071289   8.723647   162.1872   6.228625   10.244     8.68       4.051      2.0703     7.764724   542.0007   31.0747   
2913.8     0.224      246.3162   6.4348     9.652      10.498     8.7903     8.6709     8.4249     156.626    6.0796     8.913      7.893      4.033      2.1309     8.6614     541.501    32.233    
2914       0.2248     240.9063   7.7625     9.4521     9.3056     8.303      7.36       8.5176     157.21     6.1067     9.26       7.96       3.906      2.1771     6.967      540.501    34.1723   
2914.2     0.2232     245.7581   7.21       9.9494     9.3056     9.088101   8.3599     10.0122    160.141    6.201601   8.822      6.007      4.101      2.14       8.3624     540.501    31.7938   
2914.4001  0.2232     248.7059   6.5624     10.54665   11.8651    10.7669    9.960116   10.80575   162.1906   6.201593   10.955     7.079      3.796      2.1145     7.96328    541.5015   34.1522   
2914.6001  0.2231992  249.0197   6.9292     10.4466    12.27144   10.96943   11.04805   10.70189   163.3583   6.188075   10.576     6.719      3.794      2.0968     7.16702    542.5023   33.8579   
2914.8     0.2216     247.8262   7.1172     10.2493    11.196     10.0764    10.5595    9.0227     163.952    6.3371     8.672      5.557      3.831      2.103      8.7611     543.002    33.6082   
2915       0.22       251.5161   7.3052     9.9494     9.6837     7.910399   9.1597     7.3323     164.536    6.2965     11.283     8.999      3.632      2.051      9.4587     542.502    34.666    
2915.2     0.22       240.3518   7.3075     9.652      8.8113     6.9221     7.871      6.641699   163.952    6.201601   8.739      6.26       3.903      2.0525     8.6614     543.002    32.0708   
2915.4001  0.2199996  254.1687   7.1149     9.949301   8.89902    5.636192   7.159525   6.342647   164.5367   6.391407   10.114     7.253      4.094      2.1079     9.259038   543.0023   31.3359   
